STN_NAME,STN_NO,LINE_SEQ,X,Y,Latitude,Longitude,COLOR,Line,Current,ready by 2019,ready by 2020,ready by 2021,ready by 2023,ready by 2024,ready by 2025,ready by 2029
Caldecott MRT STATION,TE9,9,28692.83182,35502.57852,1.337347223,103.8395441,,Thomson-East Coast Line,0,,1,,,,,
Upper Thomson MRT STATION,TE8,8,27953.2465,37390.00369,1.354416434,103.8328985,,Thomson-East Coast Line,0,,1,,,,,
Bright Hill MRT STATION,TE7,7,27978.47193,38392.68619,1.363484337,103.8331251,,Thomson-East Coast Line,0,,1,,,,,
Mayflower MRT STATION,TE6,6,28361.59505,39274.94719,1.371463188,103.8365678,,Thomson-East Coast Line,0,,1,,,,,
Lentor MRT STATION,TE5,5,28269.89707,40827.79394,1.38550658,103.8357438,,Thomson-East Coast Line,0,,1,,,,,
Springleaf MRT STATION,TE4,4,26279.32794,42162.93444,1.397581061,103.8178569,,Thomson-East Coast Line,0,,1,,,,,
Sungei Bedok MRT STATION,TE31,31,41791.46822,33628.84704,1.32039876,103.957242,,Thomson-East Coast Line,0,,,,,1,,
Bedok South MRT STATION,TE30,30,40881.49144,33240.70464,1.316888941,103.9490653,,Thomson-East Coast Line,0,,,,,1,,
Woodlands South MRT STATION,TE3,3,23540.36005,45463.89034,1.427433416,103.7932446,,Thomson-East Coast Line,0,1,,,,,,
Bayshore MRT STATION,TE29,29,39980.44725,32765.48876,1.312591629,103.9409688,,Thomson-East Coast Line,0,,,,1,,,
Siglap MRT STATION,TE28,28,38762.61178,32479.8152,1.310008551,103.9300258,,Thomson-East Coast Line,0,,,,1,,,
Marine Terrace MRT STATION,TE27,27,37116.26698,32120.84427,1.306762679,103.9152325,,Thomson-East Coast Line,0,,,,1,,,
Marine Parade MRT STATION,TE26,26,35973.25638,31663.85468,1.302630145,103.9049619,,Thomson-East Coast Line,0,,,,1,,,
Tanjong Katong MRT STATION,TE25,25,35128.21199,31297.73082,1.299319257,103.8973687,,Thomson-East Coast Line,0,,,,1,,,
Katong Park MRT STATION,TE24,24,33871.90267,31146.06464,1.297947905,103.8860802,,Thomson-East Coast Line,0,,,,1,,,
Tanjong Rhu MRT STATION,TE23,23,32470.54125,31065.35389,1.297218218,103.8734884,,Thomson-East Coast Line,0,,,,1,,,
Gardens by the Bay MRT STATION,TE22,22,31799.07218,28994.17088,1.278487259,103.8674547,,Thomson-East Coast Line,0,,,1,,,,
Marina South MRT STATION,TE21,21,31367.22626,28559.32995,1.274554759,103.8635743,,Thomson-East Coast Line,0,,,1,,,,
Marina Bay MRT STATION,TE20,20,30369.00687,28753.5319,1.276311144,103.854605,,Thomson-East Coast Line,0,,,1,,,,
Woodlands MRT STATION,TE2,2,22716.83093,46477.10646,1.436596431,103.7858442,,Thomson-East Coast Line,0,,,,,,,
Shenton Way MRT STATION,TE19,19,29897.41915,28908.96172,1.277716828,103.8503676,,Thomson-East Coast Line,0,,,1,,,,
Maxwell MRT STATION,TE18,18,29175.80884,29220.38855,1.280533298,103.8438837,,Thomson-East Coast Line,0,,,1,,,,
Outram Park MRT STATION,TE17,17,28749.38625,29188.12518,1.280241533,103.8400521,,Thomson-East Coast Line,0,,,1,,,,
Havelock MRT STATION,TE16,16,28029.74366,30101.88222,1.28850524,103.8335858,,Thomson-East Coast Line,0,,,1,,,,
Great World MRT STATION,TE15,15,28044.76787,30703.73245,1.293948162,103.8337208,,Thomson-East Coast Line,0,,,1,,,,
Orchard MRT STATION,TE14,14,27922.21135,31854.40054,1.304354399,103.8326196,,Thomson-East Coast Line,0,,,1,,,,
Orchard Boulevard MRT STATION,TE13,13,26948.29454,31640.75525,1.302422248,103.8238685,,Thomson-East Coast Line,0,,,1,,,,
Napier MRT STATION,TE12,12,26402.80266,32122.95592,1.306783078,103.818967,,Thomson-East Coast Line,0,,,1,,,,
Stevens MRT STATION,TE11,11,27150.38088,33620.81352,1.320329203,103.8256843,,Thomson-East Coast Line,0,,,1,,,,
Mount Pleasant MRT STATION,TE10,10,28152.43078,34526.28235,1.328517954,103.8346883,,Thomson-East Coast Line,0,,,1,,,,
Woodlands North MRT STATION,TE1,1,22699.99124,47770.39457,1.448292453,103.7856927,,Thomson-East Coast Line,0,1,,,,,,
Founders' Memorial[20],TE22A,22,,,,,,Thomson-East Coast Line,0,,,,,,1,
RENJONG LRT STATION,SW8,8,34367.9437,40962.4782,1.386723922,103.8905227,LRT,LRT,1,,,,,,,
TONGKANG LRT STATION,SW7,7,33845.4132,41252.6183,1.389347953,103.8858287,LRT,LRT,1,,,,,,,
LAYAR LRT STATION,SW6,6,33198.3233,41554.6829,1.392079839,103.8800158,LRT,LRT,1,,,,,,,
FERNVALE LRT STATION,SW5,5,32784.2264,41533.2289,1.391885888,103.8762959,LRT,LRT,1,,,,,,,
THANGGAM LRT STATION,SW4,4,32709.2689,42133.9003,1.397318155,103.8756226,LRT,LRT,1,,,,,,,
KUPANG LRT STATION,SW3,3,33334.8164,42232.8408,1.398212828,103.881242,LRT,LRT,1,,,,,,,
FARMWAY LRT STATION,SW2,2,34230.5193,42117.5716,1.397170196,103.8892882,LRT,LRT,1,,,,,,,
CHENG LIM LRT STATION,SW1,1,34730.4628,42018.8886,1.396277631,103.8937792,LRT,LRT,1,,,,,,,
SENGKANG LRT STATION,STC,,34913.5879,41502.6997,1.391609364,103.8954243,LRT,LRT,1,,,,,,,
RANGGUNG LRT STATION,SE5,5,35108.5942,40687.1255,1.384233561,103.897176,LRT,LRT,1,,,,,,,
KANGKAR LRT STATION,SE4,4,35662.73,40658.9821,1.383978902,103.9021539,LRT,LRT,1,,,,,,,
BAKAU LRT STATION,SE3,3,36026.0821,41113.8766,1.388092704,103.9054179,LRT,LRT,1,,,,,,,
RUMBIA LRT STATION,SE2,2,36085.5526,41487.1568,1.391468497,103.9059522,LRT,LRT,1,,,,,,,
COMPASSVALE LRT STATION,SE1,1,35475.5631,41821.5783,1.394493046,103.9004726,LRT,LRT,1,,,,,,,
SOO TECK LRT STATION,PW7,7,35110.1988,42993.1699,1.405088585,103.8971904,LRT,LRT,1,,,,,,,
SUMANG LRT STATION,PW6,6,35260.2918,43365.1308,1.408452426,103.8985387,LRT,LRT,1,,,,,,,
NIBONG LRT STATION,PW5,5,35455.6286,43743.0854,1.411870458,103.9002935,LRT,LRT,1,,,,,,,
SAMUDERA LRT STATION,PW4,4,35660.6597,44188.8482,1.415901719,103.9021353,LRT,LRT,1,,,,,,,
PUNGGOL POINT LRT STATION,PW3,3,36160.8276,44293.5561,1.41684852,103.9066284,LRT,LRT,1,,,,,,,
TECK LEE LRT STATION,PW2,2,36152.6993,43842.6721,1.412770894,103.9065554,LRT,LRT,1,,,,,,,
SAM KEE LRT STATION,PW1,1,35958.3967,43493.447,1.409612685,103.9048099,LRT,LRT,1,,,,,,,
PUNGGOL LRT STATION,PTC,C,35689.139,43004.9202,1.405194701,103.9023911,LRT,LRT,1,,,,,,,
DAMAI LRT STATION,PE7,7,36378.1828,43009.3794,1.405234836,103.9085809,LRT,LRT,1,,,,,,,
OASIS LRT STATION,PE6,6,36837.1178,42683.4018,1.402286677,103.9127036,LRT,LRT,1,,,,,,,
KADALOOR LRT STATION,PE5,5,37255.4884,42384.6619,1.399584853,103.9164619,LRT,LRT,1,,,,,,,
RIVIERA LRT STATION,PE4,4,37219.8293,41825.1114,1.394524496,103.9161415,LRT,LRT,1,,,,,,,
CORAL EDGE LRT STATION,PE3,3,36820.8455,41757.0642,1.393909226,103.9125574,LRT,LRT,1,,,,,,,
MERIDIAN LRT STATION,PE2,2,36416.7925,42089.0886,1.396912053,103.9089277,LRT,LRT,1,,,,,,,
COVE LRT STATION,PE1,1,36084.2293,42351.1334,1.399281985,103.9059403,LRT,LRT,1,,,,,,,
WOODLANDS MRT STATION,NS9,9,22788.1527,46507.9219,1.436875128,103.7864999,RED,North South Line,1,,,,,,,
MARSILING MRT STATION,NS8,8,21406.6874,46025.7686,1.432514421,103.77409,RED,North South Line,1,,,,,,,
KRANJI MRT STATION,NS7,7,20081.6974,45214.5479,1.425177699,103.7621874,RED,North South Line,1,,,,,,,
YEW TEE MRT STATION,NS5,5,18438.9791,42158.0124,1.397535018,103.7474307,RED,North South Line,1,,,,,,,
CHOA CHU KANG MRT STATION,NS4,4,18097.9271,40811.9589,1.385361693,103.744367,RED,North South Line,1,,,,,,,
BUKIT GOMBAK MRT STATION,NS3,3,18938.3305,37870.6512,1.358761857,103.7519164,RED,North South Line,1,,,,,,,
MARINA SOUTH PIER MRT STATION,NS28,28,31287.7063,28203.4939,1.271336711,103.8628525,RED,North South Line,1,,,,,,,
MARINA BAY MRT STATION,NS27,27,30368.2057,28766.3819,1.276427355,103.8545925,RED,North South Line,1,,,,,,,
RAFFLES PLACE MRT STATION,NS26,26,30019.1805,29617.6126,1.284125611,103.8514572,RED,North South Line,1,,,,,,,
CITY HALL MRT STATION,NS25,25,30144.2851,30591.8478,1.292936243,103.852581,RED,North South Line,1,,,,,,,
DHOBY GHAUT MRT STATION,NS24,24,29424.1448,31229.3143,1.298701307,103.8461119,RED,North South Line,1,,,,,,,
SOMERSET MRT STATION,NS23,23,28640.656,31401.6698,1.300260055,103.8390737,RED,North South Line,1,,,,,,,
ORCHARD MRT STATION,NS22,22,27880.1256,31813.1134,1.303981012,103.8322417,RED,North South Line,1,,,,,,,
NEWTON MRT STATION,NS21,21,28519.3616,32735.2072,1.3123201,103.8379841,RED,North South Line,1,,,,,,,
NOVENA MRT STATION,NS20,20,29169.3298,33633.1535,1.320440791,103.8438228,RED,North South Line,1,,,,,,,
BUKIT BATOK MRT STATION,NS2,2,18679.3541,36795.0141,1.349034109,103.74959,RED,North South Line,1,,,,,,,
TOA PAYOH MRT STATION,NS19,19,29578.4408,34980.8638,1.332628987,103.8474979,RED,North South Line,1,,,,,,,
BRADDELL MRT STATION,NS18,18,29500.0972,35848.0687,1.340471684,103.8467942,RED,North South Line,1,,,,,,,
BISHAN MRT STATION,NS17,17,29649.8988,36994.433,1.350838988,103.8481398,RED,North South Line,1,,,,,,,
ANG MO KIO MRT STATION,NS16,16,29848.9836,39040.9896,1.369347304,103.8499283,RED,North South Line,1,,,,,,,
ANG MO KIO MRT STATION,NS16,16,29807.2655,39105.772,1.369933175,103.8495535,RED,North South Line,1,,,,,,,
YIO CHU KANG MRT STATION,NS15,15,29294.1283,40413.082,1.381756046,103.8449439,RED,North South Line,1,,,,,,,
KHATIB MRT STATION,NS14,14,27962.3108,44352.568,1.41738337,103.83298,RED,North South Line,1,,,,,,,
YISHUN MRT STATION,NS13,13,28187.6787,45686.0701,1.429443081,103.8350045,RED,North South Line,1,,,,,,,
SEMBAWANG MRT STATION,NS11,11,26522.9883,47854.1998,1.449050821,103.8200504,RED,North South Line,1,,,,,,,
ADMIRALTY MRT STATION,NS10,10,24402.1063,46918.1131,1.440585001,103.8009982,RED,North South Line,1,,,,,,,
JURONG EAST MRT STATION,NS1,1,17869.0806,35038.9472,1.33315262,103.7423112,RED,North South Line,1,,,,,,,
BOON KENG MRT STATION,NE9,9,31157.0712,33517.6089,1.319395706,103.861679,PURPLE,North East Line,1,,,,,,,
FARRER PARK MRT STATION,NE8,8,30321.3596,32739.6107,1.31235984,103.8541717,PURPLE,North East Line,1,,,,,,,
LITTLE INDIA MRT STATION,NE7,7,29817.1982,32124.8312,1.307198223,103.8485807,PURPLE,North East Line,1,,,,,,,
DHOBY GHAUT MRT STATION,NE6,6,29354.3681,31340.3479,1.299705459,103.8454851,PURPLE,North East Line,1,,,,,,,
CLARKE QUAY MRT STATION,NE5,5,29473.1249,30088.7038,1.288386024,103.8465519,PURPLE,North East Line,1,,,,,,,
CHINATOWN MRT STATION,NE4,4,29124.9585,29643.4786,1.284359578,103.8434242,PURPLE,North East Line,1,,,,,,,
OUTRAM PARK MRT STATION,NE3,3,28696.2602,29135.382,1.308382639,103.8886482,PURPLE,North East Line,1,,,,,,,
PUNGGOL MRT STATION,NE17,17,35651.3846,42933.2694,1.404546728,103.902052,PURPLE,North East Line,1,,,,,,,
SENGKANG MRT STATION,NE16,16,34918.274,41512.1277,1.391694626,103.8954664,PURPLE,North East Line,1,,,,,,,
BUANGKOK MRT STATION,NE15,15,34655.3132,40537.2069,1.382877858,103.8931042,PURPLE,North East Line,1,,,,,,,
HOUGANG MRT STATION,NE14,14,34572.8759,39256.1311,1.371292292,103.8923636,PURPLE,North East Line,1,,,,,,,
KOVAN MRT STATION,NE13,13,33758.7578,38027.2795,1.360179171,103.8850503,PURPLE,North East Line,1,,,,,,,
SERANGOON MRT STATION,NE12,12,32480.0726,36869.3924,1.349707875,103.8735637,PURPLE,North East Line,1,,,,,,,
WOODLEIGH MRT STATION,NE11,11,32173.3186,35706.3794,1.339190046,103.8708081,PURPLE,North East Line,1,,,,,,,
POTONG PASIR MRT STATION,NE10,10,31977.1677,34842.7289,1.331379525,103.869046,PURPLE,North East Line,1,,,,,,,
HARBOURFRONT MRT STATION,NE1,1,26678.3445,27555.0595,1.26547264,103.821446,PURPLE,North East Line,1,,,,,,,
ALJUNIED MRT STATION,EW9,9,33518.6049,33190.002,1.316432612,103.882893,GREEN,East West Line,1,,,,,,,
PAYA LEBAR MRT STATION,EW8,8,34648.6773,33375.7341,1.318112082,103.8930446,GREEN,East West Line,1,,,,,,,
EUNOS MRT STATION,EW7,7,35782.9553,33560.0776,1.319778952,103.9032339,GREEN,East West Line,1,,,,,,,
KEMBANGAN MRT STATION,EW6,6,36862.1237,33699.3568,1.321038249,103.9129282,GREEN,East West Line,1,,,,,,,
BEDOK MRT STATION,EW5,5,38757.952,34024.7048,1.323979969,103.9299587,GREEN,East West Line,1,,,,,,,
TANAH MERAH MRT STATION,EW4,4,40578.8616,34379.4144,1.327187135,103.9463161,GREEN,East West Line,1,,,,,,,
TUAS LINK MRT STATION,EW33,33,6138.3115,35848.0658,1.340463766,103.6369324,GREEN,East West Line,1,,,,,,,
TUAS WEST ROAD MRT STATION,EW32,32,6442.6401,34689.7988,1.329989089,103.6396662,GREEN,East West Line,1,,,,,,,
TUAS CRESCENT MRT STATION,EW31,31,7495.531,33698.6818,1.321026553,103.6491245,GREEN,East West Line,1,,,,,,,
GUL CIRCLE MRT STATION,EW30,30,8772.8552,33530.3675,1.319505215,103.6605988,GREEN,East West Line,1,,,,,,,
SIMEI MRT STATION,EW3,3,41360.6138,36150.3959,1.343202895,103.9533387,GREEN,East West Line,1,,,,,,,
JOO KOON MRT STATION,EW29,29,10756.3543,34438.2764,1.327717173,103.6784167,GREEN,East West Line,1,,,,,,,
PIONEER MRT STATION,EW28,28,12864.9592,35529.4973,1.337586882,103.6973586,GREEN,East West Line,1,,,,,,,
BOON LAY MRT STATION,EW27,27,13837.9827,35641.9191,1.338604054,103.7060994,GREEN,East West Line,1,,,,,,,
LAKESIDE MRT STATION,EW26,26,15494.5171,36267.1619,1.344259249,103.7209802,GREEN,East West Line,1,,,,,,,
CHINESE GARDEN MRT STATION,EW25,25,16790.7466,36056.3019,1.342352821,103.7326244,GREEN,East West Line,1,,,,,,,
JURONG EAST MRT STATION,EW24,24,17869.0806,35038.9472,1.33315262,103.7423112,GREEN,East West Line,1,,,,,,,
CLEMENTI MRT STATION,EW23,23,20430.06,33026.6075,1.314954492,103.7653168,GREEN,East West Line,1,,,,,,,
DOVER MRT STATION,EW22,22,21914.5509,32634.1186,1.311405293,103.7786522,GREEN,East West Line,1,,,,,,,
BUONA VISTA MRT STATION,EW21,21,23200.36,32167.2655,1.307183467,103.7902028,GREEN,East West Line,1,,,,,,,
COMMONWEALTH MRT STATION,EW20,20,24103.2523,31642.6034,1.302438735,103.7983136,GREEN,East West Line,1,,,,,,,
TAMPINES MRT STATION,EW2,2,40445.4297,37266.9909,1.353301356,103.9451175,GREEN,East West Line,1,,,,,,,
QUEENSTOWN MRT STATION,EW19,19,24946.8083,30804.6785,1.294860933,103.8058913,GREEN,East West Line,1,,,,,,,
REDHILL MRT STATION,EW18,18,26163.478,30218.8196,1.289562726,103.8168209,GREEN,East West Line,1,,,,,,,
TIONG BAHRU MRT STATION,EW17,17,27298.9575,29846.251,1.286193393,103.827021,GREEN,East West Line,1,,,,,,,
OUTRAM PARK MRT STATION,EW16,16,28646.3739,29316.7727,1.279764543,103.8395732,GREEN,East West Line,1,,,,,,,
TANJONG PAGAR MRT STATION,EW15,15,29396.2311,28776.7576,1.276521247,103.8458611,GREEN,East West Line,1,,,,,,,
RAFFLES PLACE MRT STATION,EW14,14,30019.1805,29617.6126,1.284125611,103.8514572,GREEN,East West Line,1,,,,,,,
CITY HALL MRT STATION,EW13,13,30144.2851,30591.8478,1.292936243,103.852581,GREEN,East West Line,1,,,,,,,
BUGIS MRT STATION,EW12,12,30491.5648,31424.3503,1.300465076,103.8557007,GREEN,East West Line,1,,,,,,,
LAVENDER MRT STATION,EW11,11,31284.2589,32186.4342,1.30735702,103.8628215,GREEN,East West Line,1,,,,,,,
KALLANG MRT STATION,EW10,10,32236.6038,32643.3302,1.31148891,103.8713766,GREEN,East West Line,1,,,,,,,
PASIR RIS MRT STATION,EW1,1,40903.7716,39443.3983,1.372983774,103.9492348,GREEN,East West Line,1,,,,,,,
BOTANIC GARDENS MRT STATION,DT9,9,26087.2663,33852.4484,1.322423979,103.8161362,BLUE,Downtown Line,1,,,,,,,
TAN KAH KEE MRT STATION,DT8,8,25106.8667,34234.9609,1.325883209,103.8073292,BLUE,Downtown Line,1,,,,,,,
SIXTH AVENUE MRT STATION,DT7,7,23985.5297,34777.1434,1.330786387,103.7972561,BLUE,Downtown Line,1,,,,,,,
KING ALBERT PARK MRT STATION,DT6,6,22489.8451,35316.6349,1.335665121,103.7838201,BLUE,Downtown Line,1,,,,,,,
BEAUTY WORLD MRT STATION,DT5,5,21598.1665,35931.2359,1.341223176,103.77581,BLUE,Downtown Line,1,,,,,,,
EXPO MRT STATION,DT35,35,42362.7103,35285.6654,1.335382137,103.9623407,BLUE,Downtown Line,1,,,,,,,
UPPER CHANGI MRT STATION,DT34,34,42262.0767,35988.4036,1.341737484,103.9614367,BLUE,Downtown Line,1,,,,,,,
TAMPINES EAST MRT STATION,DT33,33,41501.0749,37586.6178,1.356191483,103.9546005,BLUE,Downtown Line,1,,,,,,,
TAMPINES MRT STATION,DT32,32,40213.0284,37463.3697,1.355077429,103.9430298,BLUE,Downtown Line,1,,,,,,,
TAMPINES WEST MRT STATION,DT31,31,39698.5276,36406.0143,1.345515305,103.938408,BLUE,Downtown Line,1,,,,,,,
BEDOK RESERVOIR MRT STATION,DT30,30,39008.3132,35421.0409,1.33660783,103.9322077,BLUE,Downtown Line,1,,,,,,,
HILLVIEW MRT STATION,DT3,3,20666.0676,38266.7899,1.362344869,103.7674369,BLUE,Downtown Line,1,,,,,,,
BEDOK NORTH MRT STATION,DT29,29,37421.7438,35214.6804,1.334742117,103.9179554,BLUE,Downtown Line,1,,,,,,,
KAKI BUKIT MRT STATION,DT28,28,36362.4224,35239.5458,1.334967302,103.9084393,BLUE,Downtown Line,1,,,,,,,
UBI MRT STATION,DT27,27,35337.7709,34685.4833,1.329956826,103.8992348,BLUE,Downtown Line,1,,,,,,,
MACPHERSON MRT STATION,DT26,26,34235.7966,34256.4317,1.326076883,103.8893356,BLUE,Downtown Line,1,,,,,,,
MATTAR MRT STATION,DT25,25,33556.5834,34344.8585,1.326876715,103.8832341,BLUE,Downtown Line,1,,,,,,,
GEYLANG BAHRU MRT STATION,DT24,24,32293.7994,33750.9518,1.321505838,103.8718904,BLUE,Downtown Line,1,,,,,,,
BENDEMEER MRT STATION,DT23,23,31300.8084,32884.7382,1.313672233,103.8629702,BLUE,Downtown Line,1,,,,,,,
JALAN BESAR MRT STATION,DT22,22,30466.0301,31970.4313,1.305403642,103.8554713,BLUE,Downtown Line,1,,,,,,,
BENCOOLEN MRT STATION,DT21,21,29899.2575,31247.3368,1.29886427,103.8503799,BLUE,Downtown Line,1,,,,,,,
FORT CANNING MRT STATION,DT20,20,29225.2834,30541.2748,1.292478928,103.8443255,BLUE,Downtown Line,1,,,,,,,
CASHEW MRT STATION,DT2,2,20362.9591,39043.5835,1.369369831,103.764714,BLUE,Downtown Line,1,,,,,,,
CHINATOWN MRT STATION,DT19,19,29238.9683,29686.5359,1.284748969,103.8444484,BLUE,Downtown Line,1,,,,,,,
TELOK AYER MRT STATION,DT18,18,29667.6216,29414.5867,1.282289536,103.8482991,BLUE,Downtown Line,1,,,,,,,
DOWNTOWN MRT STATION,DT17,17,30172.6259,29100.1876,1.27944619,103.8528356,BLUE,Downtown Line,1,,,,,,,
BAYFRONT MRT STATION,DT16,16,30867.0093,29368.625,1.281873788,103.8590733,BLUE,Downtown Line,1,,,,,,,
PROMENADE MRT STATION,DT15,15,31064.3414,30586.9146,1.292891552,103.860846,BLUE,Downtown Line,1,,,,,,,
BUGIS MRT STATION,DT14,14,30620.8769,31323.2495,1.299550746,103.8568623,BLUE,Downtown Line,1,,,,,,,
ROCHOR MRT STATION,DT13,13,30126.0006,31805.9862,1.306800025,103.8496427,BLUE,Downtown Line,1,,,,,,,
LITTLE INDIA MRT STATION,DT12,12,29698.9692,32168.8611,1.303916484,103.8524167,BLUE,Downtown Line,1,,,,,,,
NEWTON MRT STATION,DT11,11,28499.9628,32877.5173,1.313607102,103.8378098,BLUE,Downtown Line,1,,,,,,,
STEVENS MRT STATION,DT10,10,27188.23,33591.6608,1.320065557,103.8260263,BLUE,Downtown Line,1,,,,,,,
BUKIT PANJANG MRT STATION,DT1,1,20011.3981,40108.6838,1.379002117,103.7615559,BLUE,Downtown Line,1,,,,,,,
CHANGI AIRPORT MRT STATION,CG2,2,45254.8614,37711.015,1.357314545,103.9883212,OTHERS,Changi Airport Branch Line,1,,,,,,,
EXPO MRT STATION,CG1,1,42270.6232,35193.6223,1.334549778,103.9615134,OTHERS,Changi Airport Branch Line,1,,,,,,,
MARINA BAY MRT STATION,CE2,2,30423.4296,28735.7843,1.276150637,103.8550886,OTHERS,Circle Line,1,,,,,,,
BAYFRONT MRT STATION,CE1,1,30867.0093,29368.625,1.281873788,103.8590733,OTHERS,Circle Line,1,,,,,,,
PAYA LEBAR MRT STATION,CC9,9,34550.5756,33300.3402,1.317430268,103.8921633,YELLOW,Circle Line,1,,,,,,,
DAKOTA MRT STATION,CC8,8,34159.2741,32299.8905,1.281404978,103.839125,YELLOW,Circle Line,1,,,,,,,
MOUNTBATTEN MRT STATION,CC7,7,33476.5634,32058.7418,1.306201905,103.8825153,YELLOW,Circle Line,1,,,,,,,
STADIUM MRT STATION,CC6,6,32677.7526,31687.0547,1.30284063,103.8753395,YELLOW,Circle Line,1,,,,,,,
NICOLL HIGHWAY MRT STATION,CC5,5,31374.1708,31347.1516,1.299766835,103.8636292,YELLOW,Circle Line,1,,,,,,,
PROMENADE MRT STATION,CC4,4,31080.6082,30623.0174,1.293218051,103.8609921,YELLOW,Circle Line,1,,,,,,,
ESPLANADE MRT STATION,CC3,3,30469.0566,30634.4621,1.293321608,103.8554985,YELLOW,Circle Line,1,,,,,,,
HARBOURFRONT MRT STATION,CC29,29,26678.3445,27555.0595,1.26547264,103.821446,YELLOW,Circle Line,1,,,,,,,
TELOK BLANGAH MRT STATION,CC28,28,25376.8469,28138.9667,1.270753211,103.8097544,YELLOW,Circle Line,1,,,,,,,
LABRADOR PARK MRT STATION,CC27,27,24619.0578,28313.6298,1.272332732,103.8029471,YELLOW,Circle Line,1,,,,,,,
PASIR PANJANG MRT STATION,CC26,26,23329.2647,28742.7658,1.276213523,103.7913607,YELLOW,Circle Line,1,,,,,,,
HAW PAR VILLA MRT STATION,CC25,25,22267.5675,29442.573,1.282542157,103.7818234,YELLOW,Circle Line,1,,,,,,,
KENT RIDGE MRT STATION,CC24,24,22581.5421,30650.0972,1.293462633,103.7846438,YELLOW,Circle Line,1,,,,,,,
ONE-NORTH MRT STATION,CC23,23,22896.0731,31346.4085,1.299759879,103.7874693,YELLOW,Circle Line,1,,,,,,,
BUONA VISTA MRT STATION,CC22,22,23251.7611,32090.7692,1.306491669,103.7906645,YELLOW,Circle Line,1,,,,,,,
HOLLAND VILLAGE MRT STATION,CC21,21,23868.1442,32681.5744,1.31183479,103.7962016,YELLOW,Circle Line,1,,,,,,,
FARRER ROAD MRT STATION,CC20,20,25136.2263,33309.1617,1.317510612,103.8075929,YELLOW,Circle Line,1,,,,,,,
BRAS BASAH MRT STATION,CC2,2,29930.7674,31025.9016,1.296861687,103.8506629,YELLOW,Circle Line,1,,,,,,,
BOTANIC GARDENS MRT STATION,CC19,19,25959.4046,33817.7525,1.322110193,103.8149876,YELLOW,Circle Line,1,,,,,,,
BUKIT BROWN MRT STATION,CC18,18,27707.4166,35102.4802,1.333728882,103.8306903,YELLOW,Circle Line,1,,,,,,,
CALDECOTT MRT STATION,CC17,17,28691.2451,35538.768,1.337674508,103.8395281,YELLOW,Circle Line,1,,,,,,,
MARYMOUNT MRT STATION,CC16,16,28679.3688,36758.7136,1.348707263,103.8394214,YELLOW,Circle Line,1,,,,,,,
BISHAN MRT STATION,CC15,15,29762.3507,37046.3699,1.35130868,103.84915,YELLOW,Circle Line,1,,,,,,,
LORONG CHUAN MRT STATION,CC14,14,31431.4054,37079.9444,1.351612171,103.8641434,YELLOW,Circle Line,1,,,,,,,
SERANGOON MRT STATION,CC13,13,32345.7724,36967.5123,1.350595256,103.8723572,YELLOW,Circle Line,1,,,,,,,
BARTLEY MRT STATION,CC12,12,33168.3039,36108.7003,1.342828338,103.8797462,YELLOW,Circle Line,1,,,,,,,
TAI SENG MRT STATION,CC11,11,34107.1526,35291.0164,1.335433322,103.88818,YELLOW,Circle Line,1,,,,,,,
MACPHERSON MRT STATION,CC10,10,34340.0124,34286.1222,1.326345372,103.8902718,YELLOW,Circle Line,1,,,,,,,
DHOBY GHAUT MRT STATION,CC1,1,29437.9401,31244.9618,1.298842816,103.8462358,YELLOW,Circle Line,1,,,,,,,
BANGKIT LRT STATION,BP9,9,21248.246,40220.9693,1.380017897,103.7726667,LRT,LRT,1,,,,,,,
PENDING LRT STATION,BP8,8,21094.7812,39792.4936,1.376142883,103.7712881,LRT,LRT,1,,,,,,,
PETIR LRT STATION,BP7,7,20582.7273,39970.2513,1.377750334,103.7666882,LRT,LRT,1,,,,,,,
BUKIT PANJANG LRT STATION,BP6,6,20175.9353,39987.9068,1.377909898,103.763034,LRT,LRT,1,,,,,,,
PHOENIX LRT STATION,BP5,5,19621.7772,40066.3155,1.378618844,103.7580559,LRT,LRT,1,,,,,,,
TECK WHYE LRT STATION,BP4,4,19140.8,39852.4608,1.376684679,103.7537352,LRT,LRT,1,,,,,,,
KEAT HONG LRT STATION,BP3,3,18622.5727,40064.5711,1.378602766,103.7490799,LRT,LRT,1,,,,,,,
SOUTH VIEW LRT STATION,BP2,2,18203.7243,40252.0686,1.380298287,103.7453173,LRT,LRT,1,,,,,,,
TEN MILE JUNCTION LRT STATION,BP14,14,19856.1189,40254.525,1.380321008,103.760161,LRT,LRT,1,,,,,,,
SENJA LRT STATION,BP13,13,20104.0139,40516.7226,1.382692296,103.7623879,LRT,LRT,1,,,,,,,
JELAPANG LRT STATION,BP12,12,20341.7491,40960.202,1.386703025,103.7645235,LRT,LRT,1,,,,,,,
SEGAR LRT STATION,BP11,11,20908.767,41078.4025,1.387772131,103.7696171,LRT,LRT,1,,,,,,,
FAJAR LRT STATION,BP10,10,21043.4356,40718.8826,1.384520796,103.7708268,LRT,LRT,1,,,,,,,
CHOA CHU KANG LRT STATION,BP1,1,18121.6052,40753.8693,1.38483636,103.7445797,LRT,LRT,1,,,,,,,
XILIN MRT STATION,DT36,,42643.96238,34569.6853,1.328906949,103.9649026,MRT,Downtown Line Extension,,,,,,1,,
PUNGGOL COAST MRT STATION,NE18,,36599.7228,44123.10208,1.415306868,103.9105946,MRT,North East Line Extension,,,,,1,,,
AVIATION PARK MRT STATION,,,,,,,MRT,Cross Island Line,,,,,,,,1
LOYANG MRT STATION,,,,,,,MRT,Cross Island Line,,,,,,,,1
PASIR RIS EAST MRT STATION,,,,,,,MRT,Cross Island Line,,,,,,,,1
PASIR RIS MRT STATION,,,40911.0404,39427.71863,1.372841969,103.9493334,MRT,Cross Island Line,,,,,,,,1
TAMPINES NORTH MRT STATION,,,,,,,MRT,Cross Island Line,,,,,,,,1
DEFU MRT STATION,,,,,,,MRT,Cross Island Line,,,,,,,,1
HOUGANG MRT STATION,,,34559.66185,39150.24779,1.370334724,103.8922618,MRT,Cross Island Line,,,,,,,,1
SERANGOON NORTH MRT STATION,,,31982.41571,39747.39963,1.375735612,103.8691035,MRT,Cross Island Line,,,,,,,,1
TAVISTOCK MRT STATION,,,,,,,MRT,Cross Island Line,,,,,,,,1
ANG MO KIO MRT STATION,,,29795.8138,39049.9738,1.369428557,103.8494552,MRT,Cross Island Line,,,,,,,,1
TECK GHEE MRT STATION,,,,,,,MRT,Cross Island Line,,,,,,,,1
Bright Hill MRT STATION,,,27978.47193,38392.68619,1.363484337,103.8331251,MRT,Cross Island Line,,,,,,,,1
CANBERRA MRT STATION,NS12,,27598.61997,47200.24673,1.443136743,103.8297118,MRT,North South Line,,1,,,,,,
