,rank_2018,primary_school_name,total_vacancy,percentage_balance_vacancy,balance_vacancy,primary_school_name_clean,index,ADDRESS,BLK_NO,BUILDING,LATITUDE,LONGITUDE,LONGTITUDE,POSTAL,ROAD_NAME,SEARCHVAL,X,Y
0,1, Nanyang Primary School ,370,5.10%, 20/390, Nanyang Primary School ,0,52 KING'S ROAD NANYANG PRIMARY SCHOOL SINGAPORE 268097,52,NANYANG PRIMARY SCHOOL,1.32084749904534,103.807750155296,103.807750155296,268097,KING'S ROAD,NANYANG PRIMARY SCHOOL,25154.487211477,33678.1373927575
1,2, Tao Nan School ,318,11.70%, 42/360, Tao Nan School ,0,49 MARINE CRESCENT TAO NAN SCHOOL SINGAPORE 449761,49,TAO NAN SCHOOL,1.30528528687323,103.911553152326,103.911553152326,449761,MARINE CRESCENT,TAO NAN SCHOOL,36706.7907984033,31957.468684243
2,3, Ai Tong School ,310,6.10%, 20/330, Ai Tong School ,0,100 BRIGHT HILL DRIVE AI TONG SCHOOL SINGAPORE 579646,100,AI TONG SCHOOL,1.36058343389044,103.833020333986,103.833020333986,579646,BRIGHT HILL DRIVE,AI TONG SCHOOL,27966.8088298794,38071.9191181604
3,4, Maha Bodhi School ,300,9.10%, 30/330, Maha Bodhi School ,0,10 UBI AVENUE 1 MAHA BODHI SCHOOL SINGAPORE 408931,10,MAHA BODHI SCHOOL,1.32847086658388,103.901298737314,103.901298737314,408931,UBI AVENUE 1,MAHA BODHI SCHOOL,35565.4979411997,34521.1796176508
4,5, Rosyth School ,280,6.70%, 20/300, Rosyth School ,0,21 SERANGOON NORTH AVENUE 4 ROSYTH SCHOOL SINGAPORE 555855,21,ROSYTH SCHOOL,1.37289067499066,103.875001549174,103.875001549174,555855,SERANGOON NORTH AVENUE 4,ROSYTH SCHOOL,32638.8043574635,39432.831561802
5,6, Pei Chun Public School ,280,6.70%, 20/300, Pei Chun Public School ,0,16 LORONG 7 TOA PAYOH PEI CHUN PUBLIC SCHOOL (U/C) SINGAPORE 319320,16,PEI CHUN PUBLIC SCHOOL (U/C),1.33733445562888,103.855631503218,103.855631503218,319320,LORONG 7 TOA PAYOH,PEI CHUN PUBLIC SCHOOL (U/C),30483.1913818875,35501.1771440115
6,7, Henry Park Primary School ,278,7.30%, 22/300, Henry Park Primary School ,0,1 HOLLAND GROVE ROAD HENRY PARK PRIMARY SCHOOL SINGAPORE 278790,1,HENRY PARK PRIMARY SCHOOL,1.31667646178349,103.784296227747,103.784296227747,278790,HOLLAND GROVE ROAD,HENRY PARK PRIMARY SCHOOL,22544.2873791987,33216.964525478
7,8, Chongfu School ,264,12.00%, 36/300, Chongfu School ,0,170 YISHUN AVENUE 6 CHONGFU SCHOOL SINGAPORE 768959,170,CHONGFU SCHOOL,1.43839562897008,103.839309173817,103.839309173817,768959,YISHUN AVENUE 6,CHONGFU SCHOOL,28666.6613053568,46675.9986570291
8,9, Mee Toh School ,261,27.50%, 99/360, Mee Toh School ,0,21 EDGEDALE PLAINS MEE TOH SCHOOL SINGAPORE 828867,21,MEE TOH SCHOOL,1.39461845385922,103.908589494228,103.908589494228,828867,EDGEDALE PLAINS,MEE TOH SCHOOL,36376.6569616916,41835.4725095052
9,10, St. Hilda’s Primary School ,250,7.40%, 20/270, Saint Hilda Primary School ,0,2 TAMPINES AVENUE 3 SAINT HILDA'S PRIMARY SCHOOL SINGAPORE 529706,2,SAINT HILDA'S PRIMARY SCHOOL,1.34938565036338,103.937007133662,103.937007133662,529706,TAMPINES AVENUE 3,SAINT HILDA'S PRIMARY SCHOOL,39539.3839146132,36833.9711756036
10,11, South View Primary School ,250,7.40%, 20/270, South View Primary School ,0,6 CHOA CHU KANG CENTRAL SOUTH VIEW PRIMARY SCHOOL SINGAPORE 689762,6,SOUTH VIEW PRIMARY SCHOOL,1.38166664389752,103.746275846011,103.746275846011,689762,CHOA CHU KANG CENTRAL,SOUTH VIEW PRIMARY SCHOOL,18313.2418920044,40403.370676199
11,12, Pei Hwa Presbyterian Primary School ,249,7.80%, 21/270, Pei Hwa Presbyterian Primary School ,0,7 PEI WAH AVENUE PEI HWA PRESBYTERIAN PRIMARY SCHOOL SINGAPORE 597610,7,PEI HWA PRESBYTERIAN PRIMARY SCHOOL,1.33805507824253,103.776108247761,103.776108247761,597610,PEI WAH AVENUE,PEI HWA PRESBYTERIAN PRIMARY SCHOOL,21633.0989682619,35580.9228991866
12,13, Nan Chiau Primary School ,248,17.30%, 52/300, Nan Chiau Primary School ,0,50 ANCHORVALE LINK NAN CHIAU PRIMARY SCHOOL SINGAPORE 545080,50,NAN CHIAU PRIMARY SCHOOL,1.39221149906595,103.891180928186,103.891180928186,545080,ANCHORVALE LINK,NAN CHIAU PRIMARY SCHOOL,34439.3196740774,41569.2687405832
13,14, Kong Hwa School ,246,8.90%, 24/270, Kong Hwa School ,0,350 GUILLEMARD ROAD KONG HWA SCHOOL SINGAPORE 399772,350,KONG HWA SCHOOL,1.31099674009195,103.888352029067,103.888352029067,399772,GUILLEMARD ROAD,KONG HWA SCHOOL,34124.7036575256,32588.9436960109
14,15, Holy Innocents’ Primary School ,242,10.40%, 28/270, Holy Innocent Primary School ,0,5 LORONG LOW KOON HOLY INNOCENTS' PRIMARY SCHOOL SINGAPORE 536451,5,HOLY INNOCENTS' PRIMARY SCHOOL,1.3669383087735,103.894114899795,103.894114899795,536451,LORONG LOW KOON,HOLY INNOCENTS' PRIMARY SCHOOL,34765.9036816591,38774.6943912171
15,16, Rulang Primary School ,242,10.40%, 28/270, Rulang Primary School ,0,6 JURONG WEST STREET 52 RULANG PRIMARY SCHOOL SINGAPORE 649295,6,RULANG PRIMARY SCHOOL,1.34673868889098,103.718457955487,103.718457955487,649295,JURONG WEST STREET 52,RULANG PRIMARY SCHOOL,15217.2735802177,36541.3390983064
16,17, Fairfield Methodist School (Primary) ,237,12.20%, 33/270, Fairfield Methodist School (Primary) ,0,100 DOVER ROAD FAIRFIELD METHODIST SCHOOL (PRIMARY) SINGAPORE 139648,100,FAIRFIELD METHODIST SCHOOL (PRIMARY),1.30054082453427,103.785438270044,103.785438270044,139648,DOVER ROAD,FAIRFIELD METHODIST SCHOOL (PRIMARY),22671.3515878757,31432.765680043
17,18, Anglo-Chinese School (Junior) ,229,15.20%, 41/270, Anglo-Chinese School (Junior) ,0,16 WINSTEDT ROAD ANGLO-CHINESE SCHOOL (JUNIOR) SINGAPORE 227988,16,ANGLO-CHINESE SCHOOL (JUNIOR),1.30935122599558,103.840955091346,103.840955091346,227988,WINSTEDT ROAD,ANGLO-CHINESE SCHOOL (JUNIOR),28849.8721698103,32406.925238777
18,19, Maris Stella High School ,228,15.60%, 42/270, Maris Stella High School ,0,25 MOUNT VERNON ROAD MARIS STELLA HIGH SCHOOL SINGAPORE 368051,25,MARIS STELLA HIGH SCHOOL,1.34139473351042,103.877852484707,103.877852484707,368051,MOUNT VERNON ROAD,MARIS STELLA HIGH SCHOOL,32956.1427370068,35950.1756834146
19,20, Catholic High School ,219,8.80%, 21/240, Catholic High School ,0,9 BISHAN STREET 22 CATHOLIC HIGH SCHOOL SINGAPORE 579767,9,CATHOLIC HIGH SCHOOL,1.35472307471664,103.844874676599,103.844874676599,579767,BISHAN STREET 22,CATHOLIC HIGH SCHOOL,29286.0617525252,37423.9135497641
20,21, Sengkang Green Primary School ,217,19.60%, 53/270, Sengkang Green Primary School ,0,15 FERNVALE ROAD SENGKANG GREEN PRIMARY SCHOOL SINGAPORE 797636,15,SENGKANG GREEN PRIMARY SCHOOL,1.39284606680479,103.875217666486,103.875217666486,797636,FERNVALE ROAD,SENGKANG GREEN PRIMARY SCHOOL,32662.81664511,41639.3984784037
21,22, Frontier Primary School ,216,10.00%, 24/240, Frontier Primary School ,0,20 JURONG WEST STREET 61 FRONTIER PRIMARY SCHOOL SINGAPORE 648200,20,FRONTIER PRIMARY SCHOOL,1.33641298743236,103.69970173931,103.69970173931,648200,JURONG WEST STREET 61,FRONTIER PRIMARY SCHOOL,13129.8467444247,35399.6791207269
22,23, Red Swastika School ,214,10.80%, 26/240, Red Swastika School ,0,350 BEDOK NORTH AVENUE 3 RED SWASTIKA SCHOOL SINGAPORE 469719,350,RED SWASTIKA SCHOOL,1.33324297847733,103.934332314404,103.934332314404,469719,BEDOK NORTH AVENUE 3,RED SWASTIKA SCHOOL,39241.7795945583,35048.9817909691
23,24, Northland Primary School ,210,12.50%, 30/240, Northland Primary School ,0,15 YISHUN AVENUE 4 NORTHLAND PRIMARY SCHOOL SINGAPORE 769026,15,NORTHLAND PRIMARY SCHOOL,1.42096989918956,103.840928424929,103.840928424929,769026,YISHUN AVENUE 4,NORTHLAND PRIMARY SCHOOL,28846.8654693803,44749.149679793
24,25, Nan Hua Primary School ,210,12.50%, 30/240, Nan Hua Primary School ,0,30 JALAN LEMPENG NAN HUA PRIMARY SCHOOL (U/C) SINGAPORE 128806,30,NAN HUA PRIMARY SCHOOL (U/C),1.31920159956389,103.761095065761,103.761095065761,128806,JALAN LEMPENG,NAN HUA PRIMARY SCHOOL (U/C),19962.229840409,33496.2443055119
25,26, Anglo-Chinese School (Primary) ,208,13.30%, 32/240, Anglo-Chinese School (Primary) ,0,50 BARKER ROAD ANGLO-CHINESE SCHOOL (PRIMARY) SINGAPORE 309918,50,ANGLO-CHINESE SCHOOL (PRIMARY),1.31837054550897,103.835609732082,103.835609732082,309918,BARKER ROAD,ANGLO-CHINESE SCHOOL (PRIMARY),28254.9829174643,33404.234054137
26,27, Temasek Primary School ,206,14.20%, 34/240, Temasek Primary School ,0,501 BEDOK SOUTH AVENUE 3 TEMASEK PRIMARY SCHOOL SINGAPORE 469300,501,TEMASEK PRIMARY SCHOOL,1.31770677551335,103.945590669163,103.945590669163,469300,BEDOK SOUTH AVENUE 3,TEMASEK PRIMARY SCHOOL,40494.796937095,33331.119106153
27,28, Punggol Green Primary School ,206,35.60%, 114/320, Punggol Green Primary School ,0,98 PUNGGOL WALK PUNGGOL GREEN PRIMARY SCHOOL SINGAPORE 828772,98,PUNGGOL GREEN PRIMARY SCHOOL,1.40187220643297,103.898801330302,103.898801330302,828772,PUNGGOL WALK,PUNGGOL GREEN PRIMARY SCHOOL,35287.3409520229,42637.5237120893
28,29, Paya Lebar Methodist Girls’ School (Primary) ,202,25.20%, 68/270, Paya Lebar Methodist Girl School (Primary) ,0,298 LORONG AH SOO PAYA LEBAR METHODIST GIRLS' SCHOOL (PRIMARY) SINGAPORE 536741,298,PAYA LEBAR METHODIST GIRLS' SCHOOL (PRIMARY),1.34947276268398,103.884971343143,103.884971343143,536741,LORONG AH SOO,PAYA LEBAR METHODIST GIRLS' SCHOOL (PRIMARY),33748.3760953201,36843.4187818971
29,30, Kuo Chuan Presbyterian Primary School ,201,16.30%, 39/240, Kuo Chuan Presbyterian Primary School ,0,8 BISHAN STREET 13 KUO CHUAN PRESBYTERIAN PRIMARY SCHOOL SINGAPORE 579793,8,KUO CHUAN PRESBYTERIAN PRIMARY SCHOOL,1.34939813669538,103.855018233311,103.855018233311,579793,BISHAN STREET 13,KUO CHUAN PRESBYTERIAN PRIMARY SCHOOL,30414.9291181257,36835.1167885195
30,31, St. Andrew’s Junior School ,190,20.80%, 50/240, Saint Andrew Junior School ,0,2 FRANCIS THOMAS DRIVE SAINT ANDREW'S JUNIOR SCHOOL SINGAPORE 359337,2,SAINT ANDREW'S JUNIOR SCHOOL,1.33140255308872,103.865117134385,103.865117134385,359337,FRANCIS THOMAS DRIVE,SAINT ANDREW'S JUNIOR SCHOOL,31538.8499082187,34845.2692709621
31,32, CHIJ St. Nicholas Girls’ School ,189,10.00%, 21/210, CHIJ Saint Nicholas Girl School ,0,501 ANG MO KIO STREET 13 CHIJ SAINT NICHOLAS GIRLS' SCHOOL SINGAPORE 569405,501,CHIJ SAINT NICHOLAS GIRLS' SCHOOL,1.37347687878919,103.834253269436,103.834253269436,569405,ANG MO KIO STREET 13,CHIJ SAINT NICHOLAS GIRLS' SCHOOL,28104.0195931308,39497.6106162667
32,33, St. Joseph’s Institution Junior ,189,21.30%, 51/240, Saint Joseph Institution Junior ,0,3 ESSEX ROAD SAINT JOSEPH'S INSTITUTION JUNIOR SINGAPORE 309331,3,SAINT JOSEPH'S INSTITUTION JUNIOR,1.31772860986917,103.845611935235,103.845611935235,309331,ESSEX ROAD,SAINT JOSEPH'S INSTITUTION JUNIOR,29368.130666256,33333.2553599086
33,34, Radin Mas Primary School ,187,11.00%, 23/210, Radin Mas Primary School ,0,1 BUKIT PURMEI AVENUE RADIN MAS PRIMARY SCHOOL SINGAPORE 099840,1,RADIN MAS PRIMARY SCHOOL,1.27495823622639,103.824188270373,103.824188270373,099840,BUKIT PURMEI AVENUE,RADIN MAS PRIMARY SCHOOL,26983.8685896061,28603.9263991751
34,35, Anderson Primary School ,185,11.90%, 25/210, Anderson Primary School ,0,19 ANG MO KIO AVENUE 9 ANDERSON PRIMARY SCHOOL SINGAPORE 569785,19,ANDERSON PRIMARY SCHOOL,1.38426429436739,103.841392081119,103.841392081119,569785,ANG MO KIO AVENUE 9,ANDERSON PRIMARY SCHOOL,28898.477648247,40690.4297215324
35,36, Gongshang Primary School ,185,11.90%, 25/210, Gongshang Primary School ,0,1 TAMPINES STREET 42 GONGSHANG PRIMARY SCHOOL SINGAPORE 529176,1,GONGSHANG PRIMARY SCHOOL,1.35723721033471,103.949116145623,103.949116145623,529176,TAMPINES STREET 42,GONGSHANG PRIMARY SCHOOL,40886.9426989323,37702.2191547398
36,37, Hong Wen School ,183,12.90%, 27/210, Hong Wen School ,0,30 TOWNER ROAD HONG WEN SCHOOL SINGAPORE 327829,30,HONG WEN SCHOOL,1.32175999964555,103.857628468881,103.857628468881,327829,TOWNER ROAD,HONG WEN SCHOOL,30705.4493981991,33779.0355954077
37,38, Poi Ching School ,182,24.20%, 58/240, Poi Ching School ,0,21 TAMPINES STREET 71 POI CHING SCHOOL SINGAPORE 529067,21,POI CHING SCHOOL,1.35765122315691,103.935246477199,103.935246477199,529067,TAMPINES STREET 71,POI CHING SCHOOL,39343.403805065,37747.9291978553
38,39, Methodist Girls’ School (Primary) ,180,14.30%, 30/210, Methodist Girl School (Primary) ,0,298 LORONG AH SOO PAYA LEBAR METHODIST GIRLS' SCHOOL (PRIMARY) SINGAPORE 536741,298,PAYA LEBAR METHODIST GIRLS' SCHOOL (PRIMARY),1.34947276268398,103.884971343143,103.884971343143,536741,LORONG AH SOO,PAYA LEBAR METHODIST GIRLS' SCHOOL (PRIMARY),33748.3760953201,36843.4187818971
39,40, Westwood Primary School ,180,25.00%, 60/240, Westwood Primary School ,0,1 JURONG WEST STREET 73 WESTWOOD PRIMARY SCHOOL SINGAPORE 649188,1,WESTWOOD PRIMARY SCHOOL,1.34718456606377,103.70053420978,103.70053420978,649188,JURONG WEST STREET 73,WESTWOOD PRIMARY SCHOOL,13222.5567915831,36590.7433791012
40,41, River Valley Primary School ,176,26.70%, 64/240, River Valley Primary School ,0,2 RIVER VALLEY GREEN RIVER VALLEY PRIMARY SCHOOL SINGAPORE 237993,2,RIVER VALLEY PRIMARY SCHOOL,1.29422328461692,103.835815165829,103.835815165829,237993,RIVER VALLEY GREEN,RIVER VALLEY PRIMARY SCHOOL,28277.8483209396,30734.1542524341
41,42, Bukit Panjang Primary School ,170,29.20%, 70/240, Bukit Panjang Primary School ,0,109 CASHEW ROAD BUKIT PANJANG PRIMARY SCHOOL SINGAPORE 679676,109,BUKIT PANJANG PRIMARY SCHOOL,1.37362179302439,103.769374904025,103.769374904025,679676,CASHEW ROAD,BUKIT PANJANG PRIMARY SCHOOL,20883.8530479278,39513.7297099233
42,43, Ngee Ann Primary School ,169,29.60%, 71/240, Ngee Ann Primary School ,0,344 MARINE TERRACE NGEE ANN PRIMARY SCHOOL SINGAPORE 449149,344,NGEE ANN PRIMARY SCHOOL,1.305525059105,103.917463017497,103.917463017497,449149,MARINE TERRACE,NGEE ANN PRIMARY SCHOOL,37364.5041869497,31984.0027186852
43,44, Rivervale Primary School ,168,30.00%, 72/240, Rivervale Primary School ,0,80 RIVERVALE DRIVE RIVERVALE PRIMARY SCHOOL SINGAPORE 545092,80,RIVERVALE PRIMARY SCHOOL,1.39340997767763,103.904559511997,103.904559511997,545092,RIVERVALE DRIVE,RIVERVALE PRIMARY SCHOOL,35928.1770641878,41701.8312798422
44,45, Canberra Primary School ,167,20.50%, 43/210, Canberra Primary School ,0,21 ADMIRALTY DRIVE CANBERRA PRIMARY SCHOOL SINGAPORE 757714,21,CANBERRA PRIMARY SCHOOL,1.45130467584564,103.815839476605,103.815839476605,757714,ADMIRALTY DRIVE,CANBERRA PRIMARY SCHOOL,26054.8552722549,48103.4229366668
45,46, Singapore Chinese Girls’ Primary School ,166,17.00%, 34/200, Singapore Chinese Girl Primary School ,0,60 DUNEARN ROAD SINGAPORE CHINESE GIRLS' PRIMARY SCHOOL (JAN 2018 - DEC 2019) SINGAPORE 309434,60,SINGAPORE CHINESE GIRLS' PRIMARY SCHOOL (JAN 2018 - DEC 2019),1.3203941615946,103.82994776728,103.82994776728,309434,DUNEARN ROAD,SINGAPORE CHINESE GIRLS' PRIMARY SCHOOL (JAN 2018 - DEC 2019),27624.8619136792,33627.9952693246
46,47, Punggol View Primary School ,166,48.10%, 154/320, Punggol View Primary School ,0,9 PUNGGOL PLACE PUNGGOL VIEW PRIMARY SCHOOL SINGAPORE 828845,9,PUNGGOL VIEW PRIMARY SCHOOL,1.40514582647964,103.905156371376,103.905156371376,828845,PUNGGOL PLACE,PUNGGOL VIEW PRIMARY SCHOOL,35994.5599585734,42999.5250743851
47,48, Admiralty Primary School ,164,21.90%, 46/210, Admiralty Primary School ,0,11 WOODLANDS CIRCLE ADMIRALTY PRIMARY SCHOOL SINGAPORE 738907,11,ADMIRALTY PRIMARY SCHOOL,1.44263479033113,103.800040119743,103.800040119743,738907,WOODLANDS CIRCLE,ADMIRALTY PRIMARY SCHOOL,24296.6250855932,47144.7700594757
48,49, Chij Primary (Toa Payoh) ,163,22.40%, 47/210, Chij Primary (Toa Payoh) ,0,628 LORONG 1 TOA PAYOH CHIJ PRIMARY (TOA PAYOH) SINGAPORE 319765,628,CHIJ PRIMARY (TOA PAYOH),1.33275264711591,103.841847263786,103.841847263786,319765,LORONG 1 TOA PAYOH,CHIJ PRIMARY (TOA PAYOH),28949.1537291817,34994.5345916767
49,50, Jurong Primary School ,160,23.80%, 50/210, Jurong Primary School ,0,320 JURONG EAST STREET 32 JURONG PRIMARY SCHOOL SINGAPORE 609476,320,JURONG PRIMARY SCHOOL,1.3486002031607,103.733156560251,103.733156560251,609476,JURONG EAST STREET 32,JURONG PRIMARY SCHOOL,16853.0771883987,36747.1039994862
50,51, Qifa Primary School ,158,34.20%, 82/240, Qifa Primary School ,0,50 WEST COAST AVENUE QIFA PRIMARY SCHOOL SINGAPORE 128104,50,QIFA PRIMARY SCHOOL,1.31325147892085,103.756743208641,103.756743208641,128104,WEST COAST AVENUE,QIFA PRIMARY SCHOOL,19477.8902518759,32838.32442878
51,52, Raffles Girls’ Primary School ,156,42.20%, 114/270, Raffles Girl Primary School ,0,21 HILLCREST ROAD RAFFLES GIRLS' PRIMARY SCHOOL SINGAPORE 289072,21,RAFFLES GIRLS' PRIMARY SCHOOL,1.32940426000123,103.806442915912,103.806442915912,289072,HILLCREST ROAD,RAFFLES GIRLS' PRIMARY SCHOOL,25009.0146507304,34624.3017604034
52,53, West Spring Primary School ,155,35.40%, 85/240, West Spring Primary School ,0,60 BUKIT PANJANG RING ROAD WEST SPRING PRIMARY SCHOOL SINGAPORE 679946,60,WEST SPRING PRIMARY SCHOOL,1.38944145898946,103.766195711835,103.766195711835,679946,BUKIT PANJANG RING ROAD,WEST SPRING PRIMARY SCHOOL,20530.0971989511,41262.998938933
53,54, Springdale Primary School ,155,42.60%, 115/270, Springdale Primary School ,0,71 ANCHORVALE LINK SPRINGDALE PRIMARY SCHOOL SINGAPORE 544799,71,SPRINGDALE PRIMARY SCHOOL,1.39467010299297,103.889926221247,103.889926221247,544799,ANCHORVALE LINK,SPRINGDALE PRIMARY SCHOOL,34299.6806921009,41841.1254489496
54,55, Xinmin Primary School ,154,26.70%, 56/210, Xinmin Primary School ,0,9 HOUGANG AVENUE 8 XINMIN PRIMARY SCHOOL SINGAPORE 538784,9,XINMIN PRIMARY SCHOOL,1.37139548941933,103.883080767491,103.883080767491,538784,HOUGANG AVENUE 8,XINMIN PRIMARY SCHOOL,33537.9261037437,39267.5186706763
55,56, Yu Neng Primary School ,151,16.10%, 29/180, Yu Neng Primary School ,0,56 BEDOK NORTH STREET 3 YU NENG PRIMARY SCHOOL SINGAPORE 469623,56,YU NENG PRIMARY SCHOOL,1.33388900977814,103.932150334643,103.932150334643,469623,BEDOK NORTH STREET 3,YU NENG PRIMARY SCHOOL,38998.9447975559,35120.4068774227
56,57, Shuqun Primary School ,150,37.50%, 90/240, Shuqun Primary School ,0,8 JURONG WEST STREET 51 SHUQUN PRIMARY SCHOOL SINGAPORE 649332,8,SHUQUN PRIMARY SCHOOL,1.34765311431636,103.721523713379,103.721523713379,649332,JURONG WEST STREET 51,SHUQUN PRIMARY SCHOOL,15558.463857362,36642.4359194655
57,58, Yangzheng Primary School ,149,17.20%, 31/180, Yangzheng Primary School ,0,15 SERANGOON AVENUE 3 YANGZHENG PRIMARY SCHOOL SINGAPORE 556108,15,YANGZHENG PRIMARY SCHOOL,1.3489737533151,103.868349549195,103.868349549195,556108,SERANGOON AVENUE 3,YANGZHENG PRIMARY SCHOOL,31898.5564730614,36788.2079213746
58,59, Keming Primary School ,148,29.50%, 62/210, Keming Primary School ,0,90 BUKIT BATOK EAST AVENUE 6 KEMING PRIMARY SCHOOL SINGAPORE 659762,90,KEMING PRIMARY SCHOOL,1.34552849960877,103.756449399351,103.756449399351,659762,BUKIT BATOK EAST AVENUE 6,KEMING PRIMARY SCHOOL,19445.303165514,36407.3561431058
59,60, Chij Our Lady Of The Nativity ,148,38.30%, 92/240, Chij Our Lady Of The Nativity ,0,1257 UPPER SERANGOON ROAD CHIJ OUR LADY OF THE NATIVITY SINGAPORE 534793,1257,CHIJ OUR LADY OF THE NATIVITY,1.37330297194879,103.897575728031,103.897575728031,534793,UPPER SERANGOON ROAD,CHIJ OUR LADY OF THE NATIVITY,35151.03377889,39478.4769222364
60,61, St. Anthony’s Primary School ,147,30.00%, 63/210, Saint Anthony Primary School ,0,30 BUKIT BATOK STREET 32 SAINT ANTHONY'S PRIMARY SCHOOL SINGAPORE 659401,30,SAINT ANTHONY'S PRIMARY SCHOOL,1.36411948475835,103.749251919049,103.749251919049,659401,BUKIT BATOK STREET 32,SAINT ANTHONY'S PRIMARY SCHOOL,18644.373300924,38463.0810494535
61,62, Woodlands Primary School ,147,30.00%, 63/210, Woodlands Primary School ,0,10 WOODLANDS DRIVE 50 WOODLANDS PRIMARY SCHOOL SINGAPORE 738853,10,WOODLANDS PRIMARY SCHOOL,1.43655108594233,103.791570546509,103.791570546509,738853,WOODLANDS DRIVE 50,WOODLANDS PRIMARY SCHOOL,23354.0808293363,46472.0799515154
62,63, Compassvale Primary School ,147,38.80%, 93/240, Compassvale Primary School ,0,21 COMPASSVALE STREET COMPASSVALE PRIMARY SCHOOL SINGAPORE 545091,21,COMPASSVALE PRIMARY SCHOOL,1.39444529636568,103.897812229905,103.897812229905,545091,COMPASSVALE STREET,COMPASSVALE PRIMARY SCHOOL,35177.2900137771,41816.2900234852
63,64, De La Salle School ,147,45.60%, 123/270, De La Salle School ,0,11 CHOA CHU KANG STREET 52 DE LA SALLE SCHOOL SINGAPORE 689285,11,DE LA SALLE SCHOOL,1.39470782963993,103.743201812831,103.743201812831,689285,CHOA CHU KANG STREET 52,DE LA SALLE SCHOOL,17971.1954546729,41845.4133931305
64,65, Riverside Primary School ,145,31.00%, 65/210, Riverside Primary School ,0,110 WOODLANDS CRESCENT RIVERSIDE PRIMARY SCHOOL SINGAPORE 737803,110,RIVERSIDE PRIMARY SCHOOL,1.44704734253722,103.801831963297,103.801831963297,737803,WOODLANDS CRESCENT,RIVERSIDE PRIMARY SCHOOL,24496.0361921676,47632.685174657
65,66, Princess Elizabeth Primary School ,144,31.40%, 66/210, Princess Elizabeth Primary School ,0,30 BUKIT BATOK WEST AVENUE 3 PRINCESS ELIZABETH PRIMARY SCHOOL SINGAPORE 659163,30,PRINCESS ELIZABETH PRIMARY SCHOOL,1.34920351265302,103.74101964471,103.74101964471,659163,BUKIT BATOK WEST AVENUE 3,PRINCESS ELIZABETH PRIMARY SCHOOL,17728.1546840407,36813.7803722415
66,67, Hougang Primary School ,142,32.40%, 68/210, Hougang Primary School ,0,1 HOUGANG STREET 93 HOUGANG PRIMARY SCHOOL SINGAPORE 534238,1,HOUGANG PRIMARY SCHOOL,1.37738249360778,103.880807295096,103.880807295096,534238,HOUGANG STREET 93,HOUGANG PRIMARY SCHOOL,33284.9030731544,39929.5262386091
67,68, Concord Primary School ,141,41.30%, 99/240, Concord Primary School ,0,3 CHOA CHU KANG AVENUE 4 CONCORD PRIMARY SCHOOL SINGAPORE 689814,3,CONCORD PRIMARY SCHOOL,1.38000806197243,103.736225440727,103.736225440727,689814,CHOA CHU KANG AVENUE 4,CONCORD PRIMARY SCHOOL,17194.7500582747,40220.0161901638
68,69, Junyuan Primary School ,140,22.20%, 40/180, Junyuan Primary School ,0,2 TAMPINES STREET 91 JUNYUAN PRIMARY SCHOOL SINGAPORE 528906,2,JUNYUAN PRIMARY SCHOOL,1.34787051230886,103.939220537934,103.939220537934,528906,TAMPINES STREET 91,JUNYUAN PRIMARY SCHOOL,39785.7187801814,36666.4452711176
69,70, Pasir Ris Primary School ,139,22.80%, 41/180, Pasir Ris Primary School ,0,5 PASIR RIS STREET 21 PASIR RIS PRIMARY SCHOOL SINGAPORE 518968,5,PASIR RIS PRIMARY SCHOOL,1.37241870245533,103.962807212116,103.962807212116,518968,PASIR RIS STREET 21,PASIR RIS PRIMARY SCHOOL,42410.5136828683,39380.9927665405
70,71, Horizon Primary School ,139,56.60%, 181/320, Horizon Primary School ,0,61 EDGEDALE PLAINS HORIZON PRIMARY SCHOOL SINGAPORE 828819,61,HORIZON PRIMARY SCHOOL,1.39955003449202,103.913404855665,103.913404855665,828819,EDGEDALE PLAINS,HORIZON PRIMARY SCHOOL,36912.5247354368,42380.7999362014
71,72, Clementi Primary School ,137,42.90%, 103/240, Clementi Primary School ,0,8 CLEMENTI AVENUE 3 CLEMENTI PRIMARY SCHOOL SINGAPORE 129903,8,CLEMENTI PRIMARY SCHOOL,1.31506321827877,103.763144493687,103.763144493687,129903,CLEMENTI AVENUE 3,CLEMENTI PRIMARY SCHOOL,20190.2983410191,33038.6364921592
72,73, Chongzheng Primary School ,136,24.40%, 44/180, Chongzheng Primary School ,0,1 TAMPINES STREET 21 CHONGZHENG PRIMARY SCHOOL SINGAPORE 529392,1,CHONGZHENG PRIMARY SCHOOL,1.35070739237745,103.951399541868,103.951399541868,529392,TAMPINES STREET 21,CHONGZHENG PRIMARY SCHOOL,41141.0940594189,36980.1959562823
73,74, Lakeside Primary School ,136,35.20%, 74/210, Lakeside Primary School ,0,161 CORPORATION WALK LAKESIDE PRIMARY SCHOOL SINGAPORE 618310,161,LAKESIDE PRIMARY SCHOOL,1.33820397676916,103.718089546936,103.718089546936,618310,CORPORATION WALK,LAKESIDE PRIMARY SCHOOL,15176.2292257221,35597.6142998803
74,75, Geylang Methodist School (Primary) ,136,49.60%, 134/270, Geylang Methodist School (Primary) ,0,4 GEYLANG EAST CENTRAL GEYLANG METHODIST SCHOOL (PRIMARY) SINGAPORE 389706,4,GEYLANG METHODIST SCHOOL (PRIMARY),1.31759126757286,103.883845744916,103.883845744916,389706,GEYLANG EAST CENTRAL,GEYLANG METHODIST SCHOOL (PRIMARY),33623.1818729443,33318.1223668922
75,76, Palm View Primary School ,135,50.00%, 135/270, Palm View Primary School ,0,150 COMPASSVALE BOW PALM VIEW PRIMARY SCHOOL SINGAPORE 544822,150,PALM VIEW PRIMARY SCHOOL,1.38376923022127,103.891354675017,103.891354675017,544822,COMPASSVALE BOW,PALM VIEW PRIMARY SCHOOL,34458.6783197634,40635.7654705271
76,77, White Sands Primary School ,133,26.10%, 47/180, White Sands Primary School ,0,2 PASIR RIS STREET 11 WHITE SANDS PRIMARY SCHOOL SINGAPORE 519075,2,WHITE SANDS PRIMARY SCHOOL,1.36555714668556,103.960918869319,103.960918869319,519075,PASIR RIS STREET 11,WHITE SANDS PRIMARY SCHOOL,42200.4040547693,38622.2636750322
77,78, West Grove Primary School ,132,37.10%, 78/210, West Grove Primary School ,0,1 JURONG WEST STREET 72 WEST GROVE PRIMARY SCHOOL SINGAPORE 649223,1,WEST GROVE PRIMARY SCHOOL,1.34487905600144,103.699286360581,103.699286360581,649223,JURONG WEST STREET 72,WEST GROVE PRIMARY SCHOOL,13083.6706046294,36335.8187624346
78,79, Woodgrove Primary School ,130,38.10%, 80/210, Woodgrove Primary School ,0,2 WOODLANDS DRIVE 14 WOODGROVE PRIMARY SCHOOL SINGAPORE 738079,2,WOODGROVE PRIMARY SCHOOL,1.43310340168969,103.790604437613,103.790604437613,738079,WOODLANDS DRIVE 14,WOODGROVE PRIMARY SCHOOL,23246.5605064053,46090.8542425763
79,80, Teck Ghee Primary School ,126,40.00%, 84/210, Teck Ghee Primary School ,0,1 ANG MO KIO STREET 32 TECK GHEE PRIMARY SCHOOL SINGAPORE 569299,1,TECK GHEE PRIMARY SCHOOL,1.36558782075971,103.850957126982,103.850957126982,569299,ANG MO KIO STREET 32,TECK GHEE PRIMARY SCHOOL,29962.9602906751,38625.2859029397
80,81, Jiemin Primary School ,125,40.50%, 85/210, Jiemin Primary School ,0,2 YISHUN STREET 71 JIEMIN PRIMARY SCHOOL SINGAPORE 768515,2,JIEMIN PRIMARY SCHOOL,1.42768620385279,103.830427933344,103.830427933344,768515,YISHUN STREET 71,JIEMIN PRIMARY SCHOOL,27678.3140832763,45491.8036267571
81,82, Kheng Cheng School ,124,48.30%, 116/240, Kheng Cheng School ,0,15 LORONG 3 TOA PAYOH KHENG CHENG SCHOOL SINGAPORE 319580,15,KHENG CHENG SCHOOL,1.33733819356392,103.847148501824,103.847148501824,319580,LORONG 3 TOA PAYOH,KHENG CHENG SCHOOL,29539.1234353306,35501.5835219603
82,83, Chij (Katong) Primary ,123,41.40%, 87/210, Chij (Katong) Primary ,0,17 MARTIA ROAD CHIJ (KATONG) PRIMARY SINGAPORE 424821,17,CHIJ (KATONG) PRIMARY,1.30648535277089,103.911105620496,103.911105620496,424821,MARTIA ROAD,CHIJ (KATONG) PRIMARY,36656.9804726075,32090.1643723622
83,84, Greenridge Primary School ,122,49.20%, 118/240, Greenridge Primary School ,0,11 JELAPANG ROAD GREENRIDGE PRIMARY SCHOOL SINGAPORE 677744,11,GREENRIDGE PRIMARY SCHOOL,1.38588921936923,103.767794469258,103.767794469258,677744,JELAPANG ROAD,GREENRIDGE PRIMARY SCHOOL,20708.0073222201,40870.2050487604
84,85, Jurong West Primary School ,118,43.80%, 92/210, Jurong West Primary School ,0,30 JURONG WEST STREET 61 JURONG WEST PRIMARY SCHOOL SINGAPORE 648368,30,JURONG WEST PRIMARY SCHOOL,1.33917519796107,103.698803732244,103.698803732244,648368,JURONG WEST STREET 61,JURONG WEST PRIMARY SCHOOL,13029.9245329099,35705.116522558
85,86, Evergreen Primary School ,118,43.80%, 92/210, Evergreen Primary School ,0,31 WOODLANDS CIRCLE EVERGREEN PRIMARY SCHOOL SINGAPORE 738908,31,EVERGREEN PRIMARY SCHOOL,1.44415064298951,103.794581221647,103.794581221647,738908,WOODLANDS CIRCLE,EVERGREEN PRIMARY SCHOOL,23689.1373903845,47312.39509161
86,87, Zhenghua Primary School ,118,50.80%, 122/240, Zhenghua Primary School ,0,9 FAJAR ROAD ZHENGHUA PRIMARY SCHOOL SINGAPORE 679002,9,ZHENGHUA PRIMARY SCHOOL,1.37954887512233,103.769313521752,103.769313521752,679002,FAJAR ROAD,ZHENGHUA PRIMARY SCHOOL,20877.0395431854,40169.1169131175
87,88, St. Stephen’s School ,116,44.80%, 94/210, Saint Stephen School ,0,20 SIGLAP VIEW SAINT STEPHEN'S SCHOOL SINGAPORE 455789,20,SAINT STEPHEN'S SCHOOL,1.31878997295137,103.917258129598,103.917258129598,455789,SIGLAP VIEW,SAINT STEPHEN'S SCHOOL,37341.6528278189,33450.7695051674
88,89, North Vista Primary School ,114,57.80%, 156/270, North Vista Primary School ,0,20 COMPASSVALE LINK NORTH VISTA PRIMARY SCHOOL SINGAPORE 544974,20,NORTH VISTA PRIMARY SCHOOL,1.38282243016301,103.895961877928,103.895961877928,544974,COMPASSVALE LINK,NORTH VISTA PRIMARY SCHOOL,34971.4042828055,40531.0861005466
89,90, St. Margaret’s Primary School ,112,44.00%, 88/200, Saint Margaret Primary School ,0,99 WILKIE ROAD SAINT MARGARET'S PRIMARY SCHOOL SINGAPORE 228091,99,SAINT MARGARET'S PRIMARY SCHOOL,1.30378845667471,103.846251114072,103.846251114072,228091,WILKIE ROAD,SAINT MARGARET'S PRIMARY SCHOOL,29439.2729892051,31791.8252364676
90,91, Zhangde Primary School ,112,46.70%, 98/210, Zhangde Primary School ,0,51 JALAN MEMBINA ZHANGDE PRIMARY SCHOOL SINGAPORE 169485,51,ZHANGDE PRIMARY SCHOOL,1.28421153335382,103.825951875662,103.825951875662,169485,JALAN MEMBINA,ZHANGDE PRIMARY SCHOOL,27180.1468993295,29627.1075303163
91,92, Xingnan Primary School ,108,40.00%, 72/180, Xingnan Primary School ,0,5 JURONG WEST STREET 91 XINGNAN PRIMARY SCHOOL SINGAPORE 649036,5,XINGNAN PRIMARY SCHOOL,1.34254744877696,103.687950252103,103.687950252103,649036,JURONG WEST STREET 91,XINGNAN PRIMARY SCHOOL,11822.0669615427,36078.0729275402
92,93, Chij (Kellock) ,108,46.00%, 92/200, Chij (Kellock) ,0,1 BUKIT TERESA ROAD CHIJ (KELLOCK) SINGAPORE 099757,1,CHIJ (KELLOCK),1.27502272296403,103.828157564896,103.828157564896,099757,BUKIT TERESA ROAD,CHIJ (KELLOCK),27425.6197932577,28611.0557805952
93,94, Chua Chu Kang Primary School ,108,48.60%, 102/210, Chua Chu Kang Primary School ,0,20 CHOA CHU KANG AVENUE 2 CHUA CHU KANG PRIMARY SCHOOL SINGAPORE 689905,20,CHUA CHU KANG PRIMARY SCHOOL,1.3777589009337,103.741832917421,103.741832917421,689905,CHOA CHU KANG AVENUE 2,CHUA CHU KANG PRIMARY SCHOOL,17818.7829598151,39971.2903354894
94,95, Fengshan Primary School ,108,48.60%, 102/210, Fengshan Primary School ,0,307 BEDOK NORTH ROAD FENGSHAN PRIMARY SCHOOL SINGAPORE 469680,307,FENGSHAN PRIMARY SCHOOL,1.32980598760786,103.931710293058,103.931710293058,469680,BEDOK NORTH ROAD,FENGSHAN PRIMARY SCHOOL,38949.9907227503,34668.9245775416
95,96, Naval Base Primary School ,108,55.00%, 132/240, Naval Base Primary School ,0,7 YISHUN AVENUE 4 NAVAL BASE PRIMARY SCHOOL SINGAPORE 769028,7,NAVAL BASE PRIMARY SCHOOL,1.41630663159389,103.838794077233,103.838794077233,769028,YISHUN AVENUE 4,NAVAL BASE PRIMARY SCHOOL,28609.3447617423,44233.5083953626
96,97, Edgefield Primary School ,108,61.40%, 172/280, Edgefield Primary School ,0,41 EDGEFIELD PLAINS EDGEFIELD PRIMARY SCHOOL SINGAPORE 828869,41,EDGEFIELD PRIMARY SCHOOL,1.40009139510997,103.907847599114,103.907847599114,828869,EDGEFIELD PLAINS,EDGEFIELD PRIMARY SCHOOL,36294.0746121528,42440.6405269783
97,98, Innova Primary School ,104,50.50%, 106/210, Innova Primary School ,0,80 WOODLANDS DRIVE 17 INNOVA PRIMARY SCHOOL SINGAPORE 737888,80,INNOVA PRIMARY SCHOOL,1.42896700684853,103.790607539185,103.790607539185,737888,WOODLANDS DRIVE 17,INNOVA PRIMARY SCHOOL,23246.8971469207,45633.4723797217
98,99, Tampines Primary School ,104,50.50%, 106/210, Tampines Primary School ,0,250 TAMPINES STREET 12 TAMPINES PRIMARY SCHOOL SINGAPORE 529426,250,TAMPINES PRIMARY SCHOOL,1.34977870805929,103.944004684986,103.944004684986,529426,TAMPINES STREET 12,TAMPINES PRIMARY SCHOOL,40318.1325834999,36877.4678724092
99,100, Anchor Green Primary School ,104,61.50%, 166/270, Anchor Green Primary School ,0,31 ANCHORVALE DRIVE ANCHOR GREEN PRIMARY SCHOOL SINGAPORE 544969,31,ANCHOR GREEN PRIMARY SCHOOL,1.39037014886962,103.887165375937,103.887165375937,544969,ANCHORVALE DRIVE,ANCHOR GREEN PRIMARY SCHOOL,33992.4459471302,41365.6508988272
100,101, Unity Primary School ,103,51.00%, 107/210, Unity Primary School ,0,21 CHOA CHU KANG CRESCENT UNITY PRIMARY SCHOOL SINGAPORE 688268,21,UNITY PRIMARY SCHOOL,1.40285481877249,103.746822625758,103.746822625758,688268,CHOA CHU KANG CRESCENT,UNITY PRIMARY SCHOOL,18374.1775784316,42746.2521210536
101,102, Endeavour Primary School ,101,57.90%, 139/240, Endeavour Primary School ,0,10 ADMIRALTY LINK ENDEAVOUR PRIMARY SCHOOL SINGAPORE 757521,10,ENDEAVOUR PRIMARY SCHOOL,1.45403837499303,103.817436231731,103.817436231731,757521,ADMIRALTY LINK,ENDEAVOUR PRIMARY SCHOOL,26232.5507349828,48405.7003912646
102,103, Fuhua Primary School ,101,57.90%, 139/240, Fuhua Primary School ,0,65 JURONG EAST STREET 13 FUHUA PRIMARY SCHOOL SINGAPORE 609647,65,FUHUA PRIMARY SCHOOL,1.33650394789627,103.736103745748,103.736103745748,609647,JURONG EAST STREET 13,FUHUA PRIMARY SCHOOL,17181.0134181529,35409.5467255637
103,104, Casuarina Primary School ,100,44.40%, 80/180, Casuarina Primary School ,0,30 PASIR RIS STREET 41 CASUARINA PRIMARY SCHOOL SINGAPORE 518935,30,CASUARINA PRIMARY SCHOOL,1.37246063955374,103.957020286387,103.957020286387,518935,PASIR RIS STREET 41,CASUARINA PRIMARY SCHOOL,41766.4977979418,39385.5958912373
104,105, Punggol Primary School ,100,52.40%, 110/210, Punggol Primary School ,0,61 HOUGANG AVENUE 8 PUNGGOL PRIMARY SCHOOL SINGAPORE 538787,61,PUNGGOL PRIMARY SCHOOL,1.37779451245844,103.894506933396,103.894506933396,538787,HOUGANG AVENUE 8,PUNGGOL PRIMARY SCHOOL,34809.5016551372,39975.1199618615
105,106, Greenwood Primary School ,100,58.30%, 140/240, Greenwood Primary School ,0,11 WOODLANDS DRIVE 62 GREENWOOD PRIMARY SCHOOL SINGAPORE 737942,11,GREENWOOD PRIMARY SCHOOL,1.43989958331785,103.804725587384,103.804725587384,737942,WOODLANDS DRIVE 62,GREENWOOD PRIMARY SCHOOL,24818.0410170285,46842.3174743243
106,107, Jing Shan Primary School ,99,34.00%, 51/150, Jing Shan Primary School ,0,5 ANG MO KIO STREET 52 JING SHAN PRIMARY SCHOOL SINGAPORE 569228,5,JING SHAN PRIMARY SCHOOL,1.372232909835,103.852132214306,103.852132214306,569228,ANG MO KIO STREET 52,JING SHAN PRIMARY SCHOOL,30093.7277568923,39360.0670565348
107,108, North View Primary School ,98,45.60%, 82/180, North View Primary School ,0,210 YISHUN AVENUE 6 NORTH VIEW PRIMARY SCHOOL SINGAPORE 768960,210,NORTH VIEW PRIMARY SCHOOL,1.42752327193729,103.848190787869,103.848190787869,768960,YISHUN AVENUE 6,NORTH VIEW PRIMARY SCHOOL,29655.0564113883,45473.7925722413
108,109, Alexandra Primary School ,97,53.80%, 113/210, Alexandra Primary School ,0,2A PRINCE CHARLES CRESCENT ALEXANDRA PRIMARY SCHOOL SINGAPORE 159016,2A,ALEXANDRA PRIMARY SCHOOL,1.29133439161336,103.824424680531,103.824424680531,159016,PRINCE CHARLES CRESCENT,ALEXANDRA PRIMARY SCHOOL,27010.1854815334,30414.7169698291
109,110, Queenstown Primary School ,97,59.60%, 143/240, Queenstown Primary School ,0,310 MARGARET DRIVE QUEENSTOWN PRIMARY SCHOOL SINGAPORE 149303,310,QUEENSTOWN PRIMARY SCHOOL,1.29559365009016,103.807548617332,103.807548617332,149303,MARGARET DRIVE,QUEENSTOWN PRIMARY SCHOOL,25132.029336134,30885.6966638323
110,111, Woodlands Ring Primary School ,97,59.60%, 143/240, Woodlands Ring Primary School ,0,11 WOODLANDS RING ROAD WOODLANDS RING PRIMARY SCHOOL SINGAPORE 738240,11,WOODLANDS RING PRIMARY SCHOOL,1.4349522931586,103.797435733144,103.797435733144,738240,WOODLANDS RING ROAD,WOODLANDS RING PRIMARY SCHOOL,24006.7839585375,46295.2823582552
111,112, Fernvale Primary School ,97,64.10%, 173/270, Fernvale Primary School ,0,1 FERNVALE LANE FERNVALE PRIMARY SCHOOL SINGAPORE 797701,1,FERNVALE PRIMARY SCHOOL,1.39030227963798,103.874445458032,103.874445458032,797701,FERNVALE LANE,FERNVALE PRIMARY SCHOOL,32576.88490103,41358.117803039
112,113, Punggol Cove Primary School ,97,69.70%, 223/320, Punggol Cove Primary School ,0,52 SUMANG WALK PUNGGOL COVE PRIMARY SCHOOL SINGAPORE 828674,52,PUNGGOL COVE PRIMARY SCHOOL,1.41159891873965,103.898804620697,103.898804620697,828674,SUMANG WALK,PUNGGOL COVE PRIMARY SCHOOL,35287.6769569106,43713.055106882
113,114, Fuchun Primary School ,96,54.30%, 114/210, Fuchun Primary School ,0,23 WOODLANDS AVENUE 1 FUCHUN PRIMARY SCHOOL SINGAPORE 739063,23,FUCHUN PRIMARY SCHOOL,1.43047990810127,103.778192944298,103.778192944298,739063,WOODLANDS AVENUE 1,FUCHUN PRIMARY SCHOOL,21865.3411816824,45800.7908879835
114,115, Tanjong Katong Primary School ,96,60.00%, 144/240, Tanjong Katong Primary School ,0,10 SERAYA ROAD TANJONG KATONG PRIMARY SCHOOL (U/C) SINGAPORE 437259,10,TANJONG KATONG PRIMARY SCHOOL (U/C),1.30528177350467,103.900128254182,103.900128254182,437259,SERAYA ROAD,TANJONG KATONG PRIMARY SCHOOL (U/C),35435.3037505941,31957.0435401425
115,116, Opera Estate Primary School ,94,47.80%, 86/180, Opera Estate Primary School ,0,48 FIDELIO STREET OPERA ESTATE PRIMARY SCHOOL SINGAPORE 458436,48,OPERA ESTATE PRIMARY SCHOOL,1.3193191443626,103.923788259248,103.923788259248,458436,FIDELIO STREET,OPERA ESTATE PRIMARY SCHOOL,38068.3909911728,33509.3080883566
116,117, Huamin Primary School ,91,56.70%, 119/210, Huamin Primary School ,0,21 YISHUN AVENUE 11 HUAMIN PRIMARY SCHOOL (U/C) SINGAPORE 768857,21,HUAMIN PRIMARY SCHOOL (U/C),1.42697284512938,103.844240226564,103.844240226564,768857,YISHUN AVENUE 11,HUAMIN PRIMARY SCHOOL (U/C),29215.4177919282,45412.9266837835
117,118, Haig Girls’ School ,89,50.60%, 91/180, Haig Girl School ,0,51 KOON SENG ROAD HAIG GIRLS' SCHOOL SINGAPORE 427072,51,HAIG GIRLS' SCHOOL,1.31194344271385,103.902902557195,103.902902557195,427072,KOON SENG ROAD,HAIG GIRLS' SCHOOL,35744.03794121,32693.6655622404
118,119, Elias Park Primary School ,88,51.10%, 92/180, Elias Park Primary School ,0,11 PASIR RIS STREET 52 ELIAS PARK PRIMARY SCHOOL SINGAPORE 518866,11,ELIAS PARK PRIMARY SCHOOL,1.37451269459895,103.945128117683,103.945128117683,518866,PASIR RIS STREET 52,ELIAS PARK PRIMARY SCHOOL,40443.0314508909,39612.4369948395
119,120, Beacon Primary School ,86,64.20%, 154/240, Beacon Primary School ,0,36 BUKIT PANJANG RING ROAD BEACON PRIMARY SCHOOL SINGAPORE 679944,36,BEACON PRIMARY SCHOOL,1.38394934487102,103.77363194111,103.77363194111,679944,BUKIT PANJANG RING ROAD,BEACON PRIMARY SCHOOL,21357.6378878588,40655.6862834729
120,121, Yishun Primary School ,85,59.50%, 125/210, Yishun Primary School ,0,500 YISHUN RING ROAD YISHUN PRIMARY SCHOOL SINGAPORE 768679,500,YISHUN PRIMARY SCHOOL,1.43338602948303,103.834087115915,103.834087115915,768679,YISHUN RING ROAD,YISHUN PRIMARY SCHOOL,28085.5266117798,46122.0614720955
121,122, Greendale Primary School ,83,74.10%, 237/320, Greendale Primary School ,0,50 EDGEDALE PLAINS GREENDALE PRIMARY SCHOOL SINGAPORE 828848,50,GREENDALE PRIMARY SCHOOL,1.39648761034483,103.912341048919,103.912341048919,828848,EDGEDALE PLAINS,GREENDALE PRIMARY SCHOOL,36794.148679073,42042.1682419889
122,123, Oasis Primary School ,83,74.10%, 237/320, Oasis Primary School ,0,71 EDGEFIELD PLAINS OASIS PRIMARY SCHOOL SINGAPORE 828716,71,OASIS PRIMARY SCHOOL,1.40462413200795,103.911120600638,103.911120600638,828716,EDGEFIELD PLAINS,OASIS PRIMARY SCHOOL,36658.2990973182,42941.8599344026
123,124, Marymount Convent School ,82,61.00%, 128/210, Marymount Convent School ,0,20 MARYMOUNT ROAD MARYMOUNT CONVENT SCHOOL SINGAPORE 297754,20,MARYMOUNT CONVENT SCHOOL,1.34036676987376,103.840021064426,103.840021064426,297754,MARYMOUNT ROAD,MARYMOUNT CONVENT SCHOOL,28745.9144793665,35836.4646800421
124,125, Corporation Primary School ,82,65.80%, 158/240, Corporation Primary School ,0,31 JURONG WEST STREET 24 CORPORATION PRIMARY SCHOOL SINGAPORE 648347,31,CORPORATION PRIMARY SCHOOL,1.35099779872542,103.707593724614,103.707593724614,648347,JURONG WEST STREET 24,CORPORATION PRIMARY SCHOOL,14008.2264165552,37012.3505131565
125,126, Yew Tee Primary School ,81,61.40%, 129/210, Yew Tee Primary School ,0,10 CHOA CHU KANG STREET 64 YEW TEE PRIMARY SCHOOL SINGAPORE 689100,10,YEW TEE PRIMARY SCHOOL,1.39676600905038,103.750985967346,103.750985967346,689100,CHOA CHU KANG STREET 64,YEW TEE PRIMARY SCHOOL,18837.4775282666,42072.9649468455
126,127, Bendemeer Primary School ,81,61.40%, 129/210, Bendemeer Primary School ,0,91 BENDEMEER ROAD BENDEMEER PRIMARY SCHOOL SINGAPORE 339948,91,BENDEMEER PRIMARY SCHOOL,1.32181250780476,103.865404167629,103.865404167629,339948,BENDEMEER ROAD,BENDEMEER PRIMARY SCHOOL,31570.8074810542,33784.8514976744
127,128, Seng Kang Primary School ,81,70.00%, 189/270, Seng Kang Primary School ,0,21 COMPASSVALE WALK SENG KANG PRIMARY SCHOOL SINGAPORE 545166,21,SENG KANG PRIMARY SCHOOL,1.38949740395092,103.899767112047,103.899767112047,545166,COMPASSVALE WALK,SENG KANG PRIMARY SCHOOL,35394.8580362806,41269.1828393471
128,129, Gan Eng Seng Primary School ,80,55.60%, 100/180, Gan Eng Seng Primary School ,0,100 REDHILL CLOSE GAN ENG SENG PRIMARY SCHOOL SINGAPORE 158901,100,GAN ENG SENG PRIMARY SCHOOL,1.28559516494963,103.815547410064,103.815547410064,158901,REDHILL CLOSE,GAN ENG SENG PRIMARY SCHOOL,26022.2170935366,29780.1080715619
129,130, Sembawang Primary School ,79,62.40%, 131/210, Sembawang Primary School ,0,10 SEMBAWANG DRIVE SEMBAWANG PRIMARY SCHOOL SINGAPORE 757715,10,SEMBAWANG PRIMARY SCHOOL,1.44507371552624,103.821042374036,103.821042374036,757715,SEMBAWANG DRIVE,SEMBAWANG PRIMARY SCHOOL,26633.8508971548,47414.4307650886
130,131, Bedok Green Primary School ,79,67.10%, 161/240, Bedok Green Primary School ,0,1 BEDOK SOUTH AVENUE 2 BEDOK GREEN PRIMARY SCHOOL SINGAPORE 469317,1,BEDOK GREEN PRIMARY SCHOOL,1.32344593287994,103.937878976352,103.937878976352,469317,BEDOK SOUTH AVENUE 2,BEDOK GREEN PRIMARY SCHOOL,39636.5324891722,33965.689382473
131,132, Wellington Primary School ,78,67.50%, 162/240, Wellington Primary School ,0,10 WELLINGTON CIRCLE WELLINGTON PRIMARY SCHOOL SINGAPORE 757702,10,WELLINGTON PRIMARY SCHOOL,1.45191585783116,103.82230605577,103.82230605577,757702,WELLINGTON CIRCLE,WELLINGTON PRIMARY SCHOOL,26774.4825479258,48170.9998424742
132,133, Waterway Primary School ,78,75.60%, 242/320, Waterway Primary School ,0,70 PUNGGOL DRIVE WATERWAY PRIMARY SCHOOL SINGAPORE 828802,70,WATERWAY PRIMARY SCHOOL,1.3988280062658,103.918621581556,103.918621581556,828802,PUNGGOL DRIVE,WATERWAY PRIMARY SCHOOL,37493.0794339105,42300.9820826873
133,134, East Spring Primary School ,77,57.20%, 103/180, East Spring Primary School ,0,31 TAMPINES STREET 33 EAST SPRING PRIMARY SCHOOL SINGAPORE 529258,31,EAST SPRING PRIMARY SCHOOL,1.35268400746359,103.961676849165,103.961676849165,529258,TAMPINES STREET 33,EAST SPRING PRIMARY SCHOOL,42284.8340225695,37198.81848507
134,135, St. Anthony’s Canossian Primary School ,77,67.90%, 163/240, Saint Anthony Canossian Primary School ,0,1602 BEDOK NORTH AVENUE 4 SAINT ANTHONY'S CANOSSIAN PRIMARY SCHOOL SINGAPORE 469701,1602,SAINT ANTHONY'S CANOSSIAN PRIMARY SCHOOL,1.33472537301892,103.941234868202,103.941234868202,469701,BEDOK NORTH AVENUE 4,SAINT ANTHONY'S CANOSSIAN PRIMARY SCHOOL,40009.9558383403,35212.9302619249
135,136, Pei Tong Primary School ,76,68.30%, 164/240, Pei Tong Primary School ,0,15 CLEMENTI AVENUE 5 PEI TONG PRIMARY SCHOOL SINGAPORE 129857,15,PEI TONG PRIMARY SCHOOL,1.31619774918991,103.767599739431,103.767599739431,129857,CLEMENTI AVENUE 5,PEI TONG PRIMARY SCHOOL,20686.127928582,33164.0736756399
136,137, Xishan Primary School ,76,68.30%, 164/240, Xishan Primary School ,0,8 YISHUN STREET 21 XISHAN PRIMARY SCHOOL SINGAPORE 768611,8,XISHAN PRIMARY SCHOOL,1.43347186925066,103.837755319448,103.837755319448,768611,YISHUN STREET 21,XISHAN PRIMARY SCHOOL,28493.7422212632,46131.553663129
137,138, Telok Kurau Primary School ,75,68.80%, 165/240, Telok Kurau Primary School ,0,50 BEDOK RESERVOIR ROAD TELOK KURAU PRIMARY SCHOOL SINGAPORE 479239,50,TELOK KURAU PRIMARY SCHOOL,1.3310458544135,103.910934011337,103.910934011337,479239,BEDOK RESERVOIR ROAD,TELOK KURAU PRIMARY SCHOOL,36637.797290423,34805.9404149782
138,139, Qihua Primary School ,74,69.20%, 166/240, Qihua Primary School ,0,5 WOODLANDS STREET 81 QIHUA PRIMARY SCHOOL SINGAPORE 738525,5,QIHUA PRIMARY SCHOOL,1.44203596612333,103.788339756898,103.788339756898,738525,WOODLANDS STREET 81,QIHUA PRIMARY SCHOOL,22994.555115696,47078.5774599053
139,140, Yumin Primary School ,73,51.30%, 77/150, Yumin Primary School ,0,3 TAMPINES STREET 21 YUMIN PRIMARY SCHOOL SINGAPORE 529393,3,YUMIN PRIMARY SCHOOL,1.35129177656982,103.950461927088,103.950461927088,529393,TAMPINES STREET 21,YUMIN PRIMARY SCHOOL,41036.7447315333,37044.8092632666
140,141, Peiying Primary School ,70,66.70%, 140/210, Peiying Primary School ,0,651 YISHUN RING ROAD PEIYING PRIMARY SCHOOL SINGAPORE 768687,651,PEIYING PRIMARY SCHOOL,1.41723339695906,103.830417090698,103.830417090698,768687,YISHUN RING ROAD,PEIYING PRIMARY SCHOOL,27677.105997242,44335.9849220235
141,142, Chij Our Lady Queen Of Peace ,69,61.70%, 111/180, Chij Our Lady Queen Of Peace ,0,4 CHESTNUT DRIVE CHIJ OUR LADY QUEEN OF PEACE SINGAPORE 679287,4,CHIJ OUR LADY QUEEN OF PEACE,1.36660366856101,103.767412204602,103.767412204602,679287,CHESTNUT DRIVE,CHIJ OUR LADY QUEEN OF PEACE,20665.4072236288,38737.7066427022
142,143, Cantonment Primary School ,69,67.10%, 141/210, Cantonment Primary School ,0,1 CANTONMENT CLOSE CANTONMENT PRIMARY SCHOOL SINGAPORE 088256,1,CANTONMENT PRIMARY SCHOOL,1.27547252623205,103.839962631748,103.839962631748,088256,CANTONMENT CLOSE,CANTONMENT PRIMARY SCHOOL,28739.4305021623,28660.7930697463
143,144, Chij Our Lady Of Good Counsel ,68,54.70%, 82/150, Chij Our Lady Of Good Counsel ,0,2C BURGHLEY DRIVE CHIJ OUR LADY OF GOOD COUNSEL SINGAPORE 558979,2C,CHIJ OUR LADY OF GOOD COUNSEL,1.3574295229699,103.864009397373,103.864009397373,558979,BURGHLEY DRIVE,CHIJ OUR LADY OF GOOD COUNSEL,31415.5340866447,37723.197379699
144,145, Si Ling Primary School ,68,67.60%, 142/210, Si Ling Primary School ,0,61 WOODLANDS AVENUE 1 SI LING PRIMARY SCHOOL SINGAPORE 739067,61,SI LING PRIMARY SCHOOL,1.43240935732527,103.786035065192,103.786035065192,739067,WOODLANDS AVENUE 1,SI LING PRIMARY SCHOOL,22738.0565941436,46014.1202728506
145,146, Boon Lay Garden Primary School ,68,71.70%, 172/240, Boon Lay Garden Primary School ,0,20 BOON LAY DRIVE BOON LAY GARDEN PRIMARY SCHOOL SINGAPORE 649930,20,BOON LAY GARDEN PRIMARY SCHOOL,1.34317853793319,103.713280889452,103.713280889452,649930,BOON LAY DRIVE,BOON LAY GARDEN PRIMARY SCHOOL,14641.102775434,36147.7026988063
146,147, St. Gabriel’s Primary School ,67,55.30%, 83/150, Saint Gabriel Primary School ,0,220 LORONG CHUAN SAINT GABRIEL'S PRIMARY SCHOOL SINGAPORE 556742,220,SAINT GABRIEL'S PRIMARY SCHOOL,1.34947192653863,103.862561037707,103.862561037707,556742,LORONG CHUAN,SAINT GABRIEL'S PRIMARY SCHOOL,31254.3589499649,36843.2848763373
147,148, North Spring Primary School ,67,75.20%, 203/270, North Spring Primary School ,0,1 RIVERVALE STREET NORTH SPRING PRIMARY SCHOOL SINGAPORE 545088,1,NORTH SPRING PRIMARY SCHOOL,1.38706146494863,103.903202683028,103.903202683028,545088,RIVERVALE STREET,NORTH SPRING PRIMARY SCHOOL,35777.2005732823,40999.8398870286
148,149, Pioneer Primary School ,66,63.30%, 114/180, Pioneer Primary School ,0,23 JURONG WEST STREET 81 PIONEER PRIMARY SCHOOL SINGAPORE 649076,23,PIONEER PRIMARY SCHOOL,1.34883617453429,103.695003812477,103.695003812477,649076,JURONG WEST STREET 81,PIONEER PRIMARY SCHOOL,12607.0934523968,36773.4045769703
149,150, Changkat Primary School ,65,63.90%, 115/180, Changkat Primary School ,0,11 SIMEI STREET 3 CHANGKAT PRIMARY SCHOOL SINGAPORE 529896,11,CHANGKAT PRIMARY SCHOOL,1.34023163951634,103.952080114035,103.952080114035,529896,SIMEI STREET 3,CHANGKAT PRIMARY SCHOOL,41216.8906296883,35821.8419446964
150,151, Northoaks Primary School ,65,72.90%, 175/240, Northoaks Primary School ,0,61 SEMBAWANG DRIVE NORTHOAKS PRIMARY SCHOOL SINGAPORE 757622,61,NORTHOAKS PRIMARY SCHOOL,1.45660782030105,103.814196981329,103.814196981329,757622,SEMBAWANG DRIVE,NORTHOAKS PRIMARY SCHOOL,25872.0767556801,48689.8195981421
151,152, New Town Primary School ,64,73.30%, 176/240, New Town Primary School ,0,300 TANGLIN HALT ROAD NEW TOWN PRIMARY SCHOOL SINGAPORE 148812,300,NEW TOWN PRIMARY SCHOOL,1.29964181064172,103.800102318609,103.800102318609,148812,TANGLIN HALT ROAD,NEW TOWN PRIMARY SCHOOL,24303.3274160316,31333.3311160151
152,153, Ahmad Ibrahim Primary School ,63,70.00%, 147/210, Ahmad Ibrahim Primary School ,0,10 YISHUN STREET 11 AHMAD IBRAHIM PRIMARY SCHOOL SINGAPORE 768643,10,AHMAD IBRAHIM PRIMARY SCHOOL,1.4331527154352,103.832942401086,103.832942401086,768643,YISHUN STREET 11,AHMAD IBRAHIM PRIMARY SCHOOL,27958.1371433483,46096.2627680507
153,154, Tampines North Primary School ,63,70.00%, 147/210, Tampines North Primary School ,0,30 TAMPINES AVENUE 9 TAMPINES NORTH PRIMARY SCHOOL SINGAPORE 529565,30,TAMPINES NORTH PRIMARY SCHOOL,1.36047641484685,103.948725782833,103.948725782833,529565,TAMPINES AVENUE 9,TAMPINES NORTH PRIMARY SCHOOL,40843.4826263869,38060.3925251365
154,155, Bukit View Primary School ,61,71.00%, 149/210, Bukit View Primary School ,0,18 BUKIT BATOK STREET 21 BUKIT VIEW PRIMARY SCHOOL SINGAPORE 659634,18,BUKIT VIEW PRIMARY SCHOOL,1.34586054842037,103.753665986188,103.753665986188,659634,BUKIT BATOK STREET 21,BUKIT VIEW PRIMARY SCHOOL,19135.5408017598,36444.0823762417
155,156, Cedar Primary School ,59,67.20%, 121/180, Cedar Primary School ,0,15 CEDAR AVENUE CEDAR PRIMARY SCHOOL SINGAPORE 349700,15,CEDAR PRIMARY SCHOOL,1.33558842561171,103.875620790518,103.875620790518,349700,CEDAR AVENUE,CEDAR PRIMARY SCHOOL,32707.7902984489,35308.1392943561
156,157, Mayflower Primary School ,59,67.20%, 121/180, Mayflower Primary School ,0,200 ANG MO KIO AVENUE 5 MAYFLOWER PRIMARY SCHOOL (U/C) SINGAPORE 569878,200,MAYFLOWER PRIMARY SCHOOL (U/C),1.37637683520311,103.843252803198,103.843252803198,569878,ANG MO KIO AVENUE 5,MAYFLOWER PRIMARY SCHOOL (U/C),29105.5558772413,39818.2753261477
157,158, Dazhong Primary School ,57,72.90%, 153/210, Dazhong Primary School ,0,35 BUKIT BATOK STREET 31 DAZHONG PRIMARY SCHOOL SINGAPORE 659441,35,DAZHONG PRIMARY SCHOOL,1.35917974472771,103.74847210784,103.74847210784,659441,BUKIT BATOK STREET 31,DAZHONG PRIMARY SCHOOL,18557.570232396,37916.8722190708
158,159, Xinghua Primary School ,57,76.30%, 183/240, Xinghua Primary School ,0,45 HOUGANG AVENUE 1 XINGHUA PRIMARY SCHOOL SINGAPORE 538882,45,XINGHUA PRIMARY SCHOOL,1.35790893608186,103.890465047334,103.890465047334,538882,HOUGANG AVENUE 1,XINGHUA PRIMARY SCHOOL,34359.7422694266,37776.2619072292
159,160, Yuhua Primary School ,55,73.80%, 155/210, Yuhua Primary School ,0,158 JURONG EAST STREET 24 YUHUA PRIMARY SCHOOL SINGAPORE 609558,158,YUHUA PRIMARY SCHOOL,1.34280230475035,103.741105772644,103.741105772644,609558,JURONG EAST STREET 24,YUHUA PRIMARY SCHOOL,17737.7130106194,36105.9662365951
160,161, Lianhua Primary School ,54,74.30%, 156/210, Lianhua Primary School ,0,2 BUKIT BATOK STREET 52 LIANHUA PRIMARY SCHOOL SINGAPORE 659243,2,LIANHUA PRIMARY SCHOOL,1.35424191127296,103.754165828711,103.754165828711,659243,BUKIT BATOK STREET 52,LIANHUA PRIMARY SCHOOL,19191.1979939705,37370.8497486655
161,162, Ang Mo Kio Primary School ,52,71.10%, 128/180, Ang Mo Kio Primary School ,0,20 ANG MO KIO AVENUE 3 ANG MO KIO PRIMARY SCHOOL SINGAPORE 569920,20,ANG MO KIO PRIMARY SCHOOL,1.3693217658461,103.839630858752,103.839630858752,569920,ANG MO KIO AVENUE 3,ANG MO KIO PRIMARY SCHOOL,28702.480467556,39038.1602696721
162,163, Townsville Primary School ,52,75.20%, 158/210, Townsville Primary School ,0,3 ANG MO KIO AVENUE 10 TOWNSVILLE PRIMARY SCHOOL SINGAPORE 569730,3,TOWNSVILLE PRIMARY SCHOOL,1.36003263719251,103.853826048328,103.853826048328,569730,ANG MO KIO AVENUE 10,TOWNSVILLE PRIMARY SCHOOL,30282.2422985248,38011.0245053861
163,164, Teck Whye Primary School ,51,71.70%, 129/180, Teck Whye Primary School ,0,11 TECK WHYE WALK TECK WHYE PRIMARY SCHOOL SINGAPORE 688261,11,TECK WHYE PRIMARY SCHOOL,1.38364996834459,103.753291857016,103.753291857016,688261,TECK WHYE WALK,TECK WHYE PRIMARY SCHOOL,19094.0433355467,40622.6493846066
164,165, Park View Primary School ,49,72.80%, 131/180, Park View Primary School ,0,60 PASIR RIS DRIVE 1 PARK VIEW PRIMARY SCHOOL SINGAPORE 519524,60,PARK VIEW PRIMARY SCHOOL,1.37738069854251,103.939541695654,103.939541695654,519524,PASIR RIS DRIVE 1,PARK VIEW PRIMARY SCHOOL,39821.3162899353,39929.5384668745
165,166, Marsiling Primary School ,49,79.60%, 191/240, Marsiling Primary School ,0,31 WOODLANDS CENTRE ROAD MARSILING PRIMARY SCHOOL SINGAPORE 738927,31,MARSILING PRIMARY SCHOOL,1.4338390403706,103.773643013846,103.773643013846,738927,WOODLANDS CENTRE ROAD,MARSILING PRIMARY SCHOOL,21359.0114489598,46172.2397052348
166,167, Meridian Primary School ,47,73.90%, 133/180, Meridian Primary School ,0,20 PASIR RIS STREET 71 MERIDIAN PRIMARY SCHOOL SINGAPORE 518798,20,MERIDIAN PRIMARY SCHOOL,1.37552831658488,103.934889078246,103.934889078246,518798,PASIR RIS STREET 71,MERIDIAN PRIMARY SCHOOL,39303.5458041914,39724.6885971092
167,168, Bukit Timah Primary School ,46,78.10%, 164/210, Bukit Timah Primary School ,0,111 LORONG KISMIS BUKIT TIMAH PRIMARY SCHOOL SINGAPORE 598112,111,BUKIT TIMAH PRIMARY SCHOOL,1.33751860013149,103.767243310781,103.767243310781,598112,LORONG KISMIS,BUKIT TIMAH PRIMARY SCHOOL,20646.5238155555,35521.62664783
168,169, Eunos Primary School ,45,70.00%, 105/150, Eunos Primary School ,0,95 JALAN EUNOS EUNOS PRIMARY SCHOOL SINGAPORE 419529,95,EUNOS PRIMARY SCHOOL,1.32447629876371,103.904541254016,103.904541254016,419529,JALAN EUNOS,EUNOS PRIMARY SCHOOL,35926.3698536847,34079.4906147048
169,170, Damai Primary School ,45,78.60%, 165/210, Damai Primary School ,0,52 BEDOK RESERVOIR CRESCENT DAMAI PRIMARY SCHOOL SINGAPORE 479226,52,DAMAI PRIMARY SCHOOL,1.33546106800408,103.921270169613,103.921270169613,479226,BEDOK RESERVOIR CRESCENT,DAMAI PRIMARY SCHOOL,37788.0885467734,35294.1912929025
170,171, Yio Chu Kang Primary School ,42,80.00%, 168/210, Yio Chu Kang Primary School ,0,1 HOUGANG STREET 51 YIO CHU KANG PRIMARY SCHOOL SINGAPORE 538720,1,YIO CHU KANG PRIMARY SCHOOL,1.37793264345278,103.885643682171,103.885643682171,538720,HOUGANG STREET 51,YIO CHU KANG PRIMARY SCHOOL,33823.1315680211,39990.3703038488
171,172, Farrer Park Primary School ,40,77.80%, 140/180, Farrer Park Primary School ,0,2 FARRER PARK ROAD FARRER PARK PRIMARY SCHOOL SINGAPORE 217567,2,FARRER PARK PRIMARY SCHOOL,1.31236855965766,103.850766169884,103.850766169884,217567,FARRER PARK ROAD,FARRER PARK PRIMARY SCHOOL,29941.7508788565,32740.5719474107
172,173, Montfort Junior School ,39,67.50%, 81/120, Montfort Junior School ,0,52 HOUGANG AVENUE 8 MONTFORT JUNIOR SCHOOL SINGAPORE 538786,52,MONTFORT JUNIOR SCHOOL,1.3738244407598,103.889307782925,103.889307782925,538786,HOUGANG AVENUE 8,MONTFORT JUNIOR SCHOOL,34230.9110763958,39536.1151842494
173,174, Canossa Catholic Primary School ,39,67.50%, 81/120, Canossa Catholic Primary School ,0,1 SALLIM ROAD CANOSSA CATHOLIC PRIMARY SCHOOL SINGAPORE 387621,1,CANOSSA CATHOLIC PRIMARY SCHOOL,1.32664424544841,103.882227964852,103.882227964852,387621,SALLIM ROAD,CANOSSA CATHOLIC PRIMARY SCHOOL,33443.1189393336,34319.1509661116
174,175, West View Primary School ,39,81.40%, 171/210, West View Primary School ,0,31 SENJA ROAD WEST VIEW PRIMARY SCHOOL SINGAPORE 677742,31,WEST VIEW PRIMARY SCHOOL,1.38367582003361,103.760240434318,103.760240434318,677742,SENJA ROAD,WEST VIEW PRIMARY SCHOOL,19867.3321747268,40625.4829824381
175,176, Kranji Primary School ,37,75.30%, 113/150, Kranji Primary School ,0,11 CHOA CHU KANG STREET 54 KRANJI PRIMARY SCHOOL SINGAPORE 689189,11,KRANJI PRIMARY SCHOOL,1.39356050497107,103.747362720939,103.747362720939,689189,CHOA CHU KANG STREET 54,KRANJI PRIMARY SCHOOL,18434.2452396229,41718.5305804797
176,177, Zhonghua Primary School ,37,79.40%, 143/180, Zhonghua Primary School ,0,12 SERANGOON AVENUE 4 ZHONGHUA PRIMARY SCHOOL SINGAPORE 556095,12,ZHONGHUA PRIMARY SCHOOL,1.3602032970505,103.869762438084,103.869762438084,556095,SERANGOON AVENUE 4,ZHONGHUA PRIMARY SCHOOL,32055.7766133808,38029.916116083
177,178, Angsana Primary School ,35,83.30%, 175/210, Angsana Primary School ,0,3 TAMPINES STREET 22 ANGSANA PRIMARY SCHOOL SINGAPORE 529366,3,ANGSANA PRIMARY SCHOOL,1.34855974654082,103.951808106156,103.951808106156,529366,TAMPINES STREET 22,ANGSANA PRIMARY SCHOOL,41186.5743382685,36742.7219521441
178,179, Blangah Rise Primary School ,28,76.70%, 92/120, Blangah Rise Primary School ,0,91 TELOK BLANGAH HEIGHTS BLANGAH RISE PRIMARY SCHOOL SINGAPORE 109100,91,BLANGAH RISE PRIMARY SCHOOL,1.27612047869293,103.808628536055,103.808628536055,109100,TELOK BLANGAH HEIGHTS,BLANGAH RISE PRIMARY SCHOOL,25252.1939881919,28732.4525514655
179,180, Stamford Primary School ,28,84.40%, 152/180, Stamford Primary School ,0,1 VICTORIA LANE STAMFORD PRIMARY SCHOOL SINGAPORE 198423,1,STAMFORD PRIMARY SCHOOL,1.3034563846745,103.857453500579,103.857453500579,198423,VICTORIA LANE,STAMFORD PRIMARY SCHOOL,30685.9966796199,31755.1155901868
180,181, Guangyang Primary School ,25,83.30%, 125/150, Guangyang Primary School ,0,6 BISHAN STREET 12 GUANGYANG PRIMARY SCHOOL SINGAPORE 579806,6,GUANGYANG PRIMARY SCHOOL,1.34569011530241,103.849453239895,103.849453239895,579806,BISHAN STREET 12,GUANGYANG PRIMARY SCHOOL,29795.6102129053,36425.0979033709
181,182, Fern Green Primary School ,24,92.00%, 276/300, Fern Green Primary School ,0,70 FERNVALE LINK FERN GREEN PRIMARY SCHOOL SINGAPORE 797538,70,FERN GREEN PRIMARY SCHOOL,1.39726966050481,103.880330305684,103.880330305684,797538,FERNVALE LINK,FERN GREEN PRIMARY SCHOOL,33231.7764054537,42128.5479522292
182,183, First Toa Payoh Primary School ,23,84.70%, 127/150, First Toa Payoh Primary School ,0,7 LORONG 8 TOA PAYOH FIRST TOA PAYOH PRIMARY SCHOOL SINGAPORE 319252,7,FIRST TOA PAYOH PRIMARY SCHOOL,1.34032299527313,103.85552990727,103.85552990727,319252,LORONG 8 TOA PAYOH,FIRST TOA PAYOH PRIMARY SCHOOL,30471.8818405755,35831.6344849318
183,184, Juying Primary School ,19,89.40%, 161/180, Juying Primary School ,0,31 JURONG WEST STREET 91 JUYING PRIMARY SCHOOL SINGAPORE 649037,31,JUYING PRIMARY SCHOOL,1.33902264667596,103.687769624799,103.687769624799,649037,JURONG WEST STREET 91,JUYING PRIMARY SCHOOL,11801.9418699732,35688.3182758819
